,vendor_name,address_line_1,city,state,zip,Latitude,Longitude,"Accuracy Score","Accuracy Type",Number,Street,"Unit Type","Unit Number",City,State,County,Zip,Country,Source
1,Zenyai,"208 Grand Street",Brooklyn,"New York",11211,40.713967,-73.960303,1,rooftop,208,"Grand St",,,Brooklyn,NY,"Kings County",11211,US,"City of New York"
2,"1 Call Building Maintenance Corp.","946 Atlantic Ave",Brooklyn,"New York",11238,40.68062,-73.962934,1,rooftop,946,"Atlantic Ave",,,Brooklyn,NY,"Kings County",11238,US,"City of New York"
3,"1 Of A Kind Home Health Care L.L.C.","148 George Street",Brooklyn,"New York",11237,40.703938,-73.928742,1,rooftop,148,"George St",,,Brooklyn,NY,"Kings County",11237,US,"City of New York"
4,"Venus Fire Protection and Safety Service","159 21st Street",Brooklyn,"New York",11232,40.663141,-73.996188,1,rooftop,159,"21st St",,,Brooklyn,NY,"Kings County",11232,US,"City of New York"
5,"1 Wise Podiatry Care P C","3079 Brighton 13th st",Brooklyn,"New York",11235,40.57846,-73.956437,1,rooftop,3079,"Brighton 13th St",,,Brooklyn,NY,"Kings County",11235,US,"City of New York"
6,"100 Cleaners Inc.","3049 Brighton 6th Street",Brooklyn,"New York",11235,40.578362,-73.961635,1,rooftop,3049,"Brighton 6th St",,,Brooklyn,NY,"Kings County",11235,US,"City of New York"
7,"7 Leaf Clover","100 North 3rd",Brooklyn,"New York",11249,40.716613,-73.961966,1,rooftop,100,"N 3rd St",,,Brooklyn,NY,"Kings County",11249,US,"City of New York"
8,"Forty Love","587 Riverside Drive, apt 4d",Brooklyn,"New York",10031,40.82146,-73.956835,1,rooftop,587,"Riverside Dr",Apt,4D,"New York",NY,"New York County",10031,US,"City of New York"
9,"170 Ashland Place Inc.","420 Carlton Ave",Brooklyn,"New York",11238,40.68464,-73.971318,1,rooftop,420,"Carlton Ave",,,Brooklyn,NY,"Kings County",11238,US,"City of New York"
10,"1-800 Mr. Rubbish Inc.","1033 86th Street",Brooklyn,"New York",11228,40.61772,-74.019479,1,rooftop,1033,"86th St",,,Brooklyn,NY,"Kings County",11228,US,"City of New York"
11,"1Star-Networks LLC","1140 East 92nd Street",Brooklyn,"New York",11236,40.641585,-73.905356,1,rooftop,1140,"E 92nd St",,,Brooklyn,NY,"Kings County",11236,US,"City of New York"
12,"2 SAAB Construction Inc.","3084 Coney Island Avenue",Brooklyn,"New York",11235,40.580916,-73.96009,1,rooftop,3084,"Coney Island Ave",,,Brooklyn,NY,"Kings County",11235,US,"City of New York"
13,"2021 Trucking Inc.","111 Broadway",Brooklyn,"New York",11249,40.710516,-73.964446,1,rooftop,111,Broadway,,,Brooklyn,NY,"Kings County",11249,US,"City of New York"
14,"24/7 HomeCare Agency of NY, Inc","2414 Ralph Avenue",Brooklyn,"New York",11234,40.619126,-73.917424,1,rooftop,2414,"Ralph Ave",,,Brooklyn,NY,"Kings County",11234,US,"City of New York"
15,"24/7 HomeCare Agency of NY, Inc","2414 Ralph Avenue",Brooklyn,"New York",11234,40.619126,-73.917424,1,rooftop,2414,"Ralph Ave",,,Brooklyn,NY,"Kings County",11234,US,"City of New York"
16,2Jobs”N”AHustle,"988 Blake Ave",Brooklyn,"New York",11208,40.669577,-73.881907,1,rooftop,988,"Blake Ave",,,Brooklyn,NY,"Kings County",11208,US,"City of New York"
17,"360 Gateway Brand Management","1127 Grant Ave, 2nd Floor",Brooklyn,"New York",11208,40.661862,-73.86169,1,rooftop,1127,"Grant Ave",Fl,2,Brooklyn,NY,"Kings County",11208,US,"City of New York"
18,"360 Gateway Brand Management","1127 Grant Ave, 2nd Floor",Brooklyn,"New York",11208,40.661862,-73.86169,1,rooftop,1127,"Grant Ave",Fl,2,Brooklyn,NY,"Kings County",11208,US,"City of New York"
19,"4 Pair Communications LLC","474 Hemlock Street",Brooklyn,"New York",11208,40.677809,-73.869778,1,rooftop,474,"Hemlock St",,,Brooklyn,NY,"Kings County",11208,US,"City of New York"
20,"40 Six Four Architecture Design Studio, PLLC","645 East 26th Street",Brooklyn,"New York",11210,40.634698,-73.952026,1,rooftop,645,"E 26th St",,,Brooklyn,NY,"Kings County",11210,US,"City of New York"
21,"41 Flatbush Ave","41 Flatbush Ave",Brooklyn,"New York",11217,40.687416,-73.979668,1,rooftop,41,"Flatbush Ave",,,Brooklyn,NY,"Kings County",11217,US,"City of New York"
22,"4A Construction Corp.","646 Coney Island Ave",Brooklyn,"New York",11218,40.641625,-73.969683,1,rooftop,646,"Coney Island Ave",,,Brooklyn,NY,"Kings County",11218,US,"City of New York"
23,"Nappy Head Club","419 Classon Avenue",Brooklyn,"New York",11238,40.68653,-73.959401,1,rooftop,419,"Classon Ave",,,Brooklyn,NY,"Kings County",11238,US,"City of New York"
24,"5 Star Wireless Solutions Inc.","858 Bedford Avenue Suite 6-B",Brooklyn,"New York",11205,40.695478,-73.956508,1,rooftop,858,"Bedford Ave",Apt,6B,Brooklyn,NY,"Kings County",11205,US,"City of New York"
25,"593 Park Place Management Inc.","593 Park Place",Brooklyn,"New York",11238,40.674668,-73.958328,1,rooftop,593,"Park Pl",,,Brooklyn,NY,"Kings County",11238,US,"City of New York"
26,"610 Collective LLC","86 Fleet Place Suite 5A",Brooklyn,"New York",11201,40.693214,-73.981916,1,rooftop,86,"Fleet Pl",Apt,5A,Brooklyn,NY,"Kings County",11201,US,"City of New York"
27,Noryan,"114 E 94th St",Brooklyn,"New York",11212,40.662435,-73.92587,1,rooftop,114,"E 94th St",,,Brooklyn,NY,"Kings County",11212,US,"City of New York"
28,"71AteChef, LLC.","475 Park Avenue",Brooklyn,"New York",11205,40.696746,-73.957962,1,rooftop,475,"Park Ave",,,Brooklyn,NY,"Kings County",11205,US,"City of New York"
29,"745 ELECTRIC INC.","128 10th st",Brooklyn,"New York",11215,40.671708,-73.993693,1,range_interpolation,128,"10th St",,,Brooklyn,NY,"Kings County",11215,US,"TIGER/Line® dataset from the US Census Bureau"
30,"816 New York, LLC","25 Parade Place",Brooklyn,"New York",11226,40.65242,-73.965513,1,rooftop,25,"Parade Pl",,,Brooklyn,NY,"Kings County",11226,US,"City of New York"
31,"99EATS, LLC","37 Box Street",Brooklyn,"New York",11216,40.737423,-73.954975,0.99,rooftop,37,"Box St",,,Brooklyn,NY,"Kings County",11222,US,"City of New York"
32,"9tofive LLC","178 Lefferts Place",Brooklyn,"New York",11238,40.680375,-73.957058,1,rooftop,178,"Lefferts Pl",,,Brooklyn,NY,"Kings County",11238,US,"City of New York"
33,"A & S Unique Builders, Corp.","8697 24th Avenue",Brooklyn,"New York",11214,40.597129,-73.991302,1,rooftop,8697,"24th Ave",,,Brooklyn,NY,"Kings County",11214,US,"City of New York"
34,"A I N Contracting Corp","476 Lake Street",Brooklyn,"New York",11223,40.592342,-73.975025,1,rooftop,476,"Lake St",,,Brooklyn,NY,"Kings County",11223,US,"City of New York"
35,"A Martin & Industries, LLC","492 Lefferts Avenue",Brooklyn,"New York",11225,40.662553,-73.944809,1,rooftop,492,"Lefferts Ave",,,Brooklyn,NY,"Kings County",11225,US,"City of New York"
36,"A Rose Grows LLC","1252 East 98th Street",Brooklyn,"New York",11236,40.641509,-73.897094,1,rooftop,1252,"E 98th St",,,Brooklyn,NY,"Kings County",11236,US,"City of New York"
37,"A&M Cleaning Service","1500 Hornell Loop",Brooklyn,"New York",11239,40.644142,-73.88032,1,rooftop,1500,"Hornell Loop",,,Brooklyn,NY,"Kings County",11239,US,"City of New York"
38,"A.J. Archer Construction & Management Corp.","1157 Bedford Avenue",Brooklyn,"New York",11216,40.683938,-73.953867,1,rooftop,1157,"Bedford Ave",,,Brooklyn,NY,"Kings County",11216,US,"City of New York"
39,"A.M.J Electric Corp","495 Flatbush Ave #35",Brooklyn,"New York",11225,40.662206,-73.961558,1,rooftop,495,"Flatbush Ave",#,35,Brooklyn,NY,"Kings County",11225,US,"City of New York"
40,"A+ Therapy LLC","9701 Shore Road",Brooklyn,"New York",11209,40.614745,-74.037323,1,rooftop,9701,"Shore Rd",,,Brooklyn,NY,"Kings County",11209,US,"City of New York"
41,"A1 Expediting Service Corp.","812 Wyckoff Ave",Brooklyn,"New York",11237,40.697946,-73.908447,1,rooftop,812,"Wyckoff Ave",,,Brooklyn,NY,"Kings County",11237,US,"City of New York"
42,"AAA Cleaning Services Inc","1202 Ave U",Brooklyn,"New York",11229,40.598315,-73.959949,1,rooftop,1202,"Ave U",,,Brooklyn,NY,"Kings County",11229,US,"City of New York"
43,"AAA Healthsource, Inc.","2365 Nostrand Avenue",Brooklyn,"New York",11210,40.627156,-73.946781,1,rooftop,2365,"Nostrand Ave",,,Brooklyn,NY,"Kings County",11210,US,"City of New York"
44,"Aamway Service Co., Inc.","1844 83rd Street",Brooklyn,"New York",11214,40.608062,-73.999622,1,rooftop,1844,"83rd St",,,Brooklyn,NY,"Kings County",11214,US,"City of New York"
45,"Aaron Valuation Inc.","One Hanson Place",Brooklyn,"New York",11243,40.685264,-73.977664,0.96,rooftop,1,"Hanson Pl",,,Brooklyn,NY,"Kings County",11217,US,"City of New York"
46,"Aarons Law Office PLLC","1894 Fulton Street",Brooklyn,"New York",11233,40.678852,-73.92353,1,rooftop,1894,"Fulton St",,,Brooklyn,NY,"Kings County",11233,US,"City of New York"
47,"Studio A/B","333 Schermerhorn Street",Brooklyn,"New York",11217,40.687204,-73.981131,1,rooftop,333,"Schermerhorn St",,,Brooklyn,NY,"Kings County",11217,US,"City of New York"
48,"Wild Stone","1000 Dean Street, Suite 101",Brooklyn,"New York",11238,40.677805,-73.957119,1,rooftop,1000,"Dean St",Ste,101,Brooklyn,NY,"Kings County",11238,US,"City of New York"
49,"Abco Trade Inc.","1 Middleton Street #3L",Brooklyn,"New York",11206,40.700003,-73.955977,1,rooftop,1,"Middleton St",Apt,3L,Brooklyn,NY,"Kings County",11206,US,"City of New York"
50,"Aunt Butchies","8118 13th Ave",Brooklyn,"New York",11228,40.616668,-74.011427,1,rooftop,8118,"13th Ave",,,Brooklyn,NY,"Kings County",11228,US,"City of New York"
51,"Abdul Construction & Painting, Corp.","210 East 7th Street",Brooklyn,"New York",11218,40.646859,-73.973534,1,rooftop,210,"E 7th St",,,Brooklyn,NY,"Kings County",11218,US,"City of New York"
52,"Aberdeen Mechanical LLC","1788 Schenectady Avenue",Brooklyn,"New York",11234,40.62885,-73.931063,1,rooftop,1788,"Schenectady Ave",,,Brooklyn,NY,"Kings County",11234,US,"City of New York"
53,"About Real Estate NY, LLC","15 MetroTech Center, 7th floor",Brooklyn,"New York",11201,40.694036,-73.98502,1,rooftop,15,"Metrotech Ctr",Ste,7,Brooklyn,NY,"Kings County",11201,US,"City of New York"
54,"Above and Beyond Talent Acquisition, Inc.","79A Clermont Avenue",Brooklyn,"New York",11205,40.695284,-73.971087,1,rooftop,79,"Clermont Ave",,,Brooklyn,NY,"Kings County",11205,US,"City of New York"
55,"Achieve Engineering, PLLC","8023 New Utrecht Ave",Brooklyn,"New York",11214,40.611121,-74.001119,1,rooftop,8023,"New Utrecht Ave",,,Brooklyn,NY,"Kings County",11214,US,"City of New York"
56,"ACME CONTRACTING CORP.","201 Bay 43 Street",Brooklyn,"New York",11214,40.591303,-73.98909,1,rooftop,201,"Bay 43rd St",,,Brooklyn,NY,"Kings County",11214,US,"City of New York"
57,"ACR Pro Contractors Corp.","128 10th Street, Unit A",Brooklyn,"New York",11215,40.671708,-73.993693,1,range_interpolation,128,"10th St",Unit,A,Brooklyn,NY,"Kings County",11215,US,"TIGER/Line® dataset from the US Census Bureau"
58,"Act II Interiors LTD","1661 Utica Ave",Brooklyn,"New York",11234,40.63182,-73.928054,1,rooftop,1661,"Utica Ave",,,Brooklyn,NY,"Kings County",11234,US,"City of New York"
59,"Active World Solutions, Inc.","609A Fountain Avenue",Brooklyn,"New York",11208,40.665851,-73.870951,1,rooftop,609,"Fountain Ave",,,Brooklyn,NY,"Kings County",11208,US,"City of New York"
60,"Active World Solutions, Inc.","609A Fountain Avenue",Brooklyn,"New York",11208,40.665851,-73.870951,1,rooftop,609,"Fountain Ave",,,Brooklyn,NY,"Kings County",11208,US,"City of New York"
61,"Active World, LLC","609A Fountain Avenue",Brooklyn,"New York",11208,40.665851,-73.870951,1,rooftop,609,"Fountain Ave",,,Brooklyn,NY,"Kings County",11208,US,"City of New York"
62,"ACTLAB LLC","132 Atlantic Avenue",Brooklyn,"New York",11201,40.6904,-73.995514,1,rooftop,132,"Atlantic Ave",,,Brooklyn,NY,"Kings County",11201,US,"City of New York"
63,"AD Cleaning Solutions LLC","523 Kingston Ave, Ste. 3",Brooklyn,"New York",11225,40.661148,-73.942485,1,rooftop,523,"Kingston Ave",Apt,3,Brooklyn,NY,"Kings County",11225,US,"City of New York"
64,"Adam Electrical Contracting, LLC","2568 East 17th Street, Suite 101",Brooklyn,"New York",11235,40.588557,-73.9527,1,rooftop,2568,"E 17th St",Ste,101,Brooklyn,NY,"Kings County",11235,US,"City of New York"
65,"Adam's European Contracting Inc.","589 Johnson Avenue",Brooklyn,"New York",11237,40.709279,-73.923434,1,rooftop,589,"Johnson Ave",,,Brooklyn,NY,"Kings County",11237,US,"City of New York"
66,"Adena Philips Consulting LLC","521 Greene Ave",Brooklyn,"New York",11216,40.688665,-73.95004,1,rooftop,521,"Greene Ave",,,Brooklyn,NY,"Kings County",11216,US,"City of New York"
67,"ADET Group, Inc.","100 Jay Street",Brooklyn,"New York",11201,40.702278,-73.986925,1,rooftop,100,"Jay St",,,Brooklyn,NY,"Kings County",11201,US,"City of New York"
68,"Adirondacks Protection and Security Services","416 Vermont Street",Brooklyn,"New York",11207,40.669215,-73.893414,1,rooftop,416,"Vermont St",,,Brooklyn,NY,"Kings County",11207,US,"City of New York"
69,"Adkins Cleaning & Landscaping LLC","1740 Ocean Ave Suite L-1F",Brooklyn,"New York",11230,40.6195,-73.955779,1,rooftop,1740,"Ocean Ave",Apt,L,Brooklyn,NY,"Kings County",11230,US,"City of New York"
70,"Admire Landscaping and Lawn Care LLC","950 East 81st Street",Brooklyn,"New York",11236,40.634973,-73.911614,1,rooftop,950,"E 81st St",,,Brooklyn,NY,"Kings County",11236,US,"City of New York"
71,"Adrienne Nicole Productions, LLC","300 Cadman Plaza West",Brooklyn,"New York",11201,40.695024,-73.991027,1,rooftop,300,"Cadman Plz W",,,Brooklyn,NY,"Kings County",11201,US,"City of New York"
72,"Adrienne Nicole Productions, LLC","300 Cadman Plaza West",Brooklyn,"New York",11201,40.695024,-73.991027,1,rooftop,300,"Cadman Plz W",,,Brooklyn,NY,"Kings County",11201,US,"City of New York"
73,"Advance Builders, Inc.","259 Newkirk Ave",Brooklyn,"New York",11230,40.632362,-73.970314,1,rooftop,259,"Newkirk Ave",,,Brooklyn,NY,"Kings County",11230,US,"City of New York"
74,"Advance Light And Power Electric Corp.","252 Java Street, Suite 227",Brooklyn,"New York",11222,40.731949,-73.949975,1,rooftop,252,"Java St",Ste,227,Brooklyn,NY,"Kings County",11222,US,"City of New York"
75,"Advancing Health Equity LLC","195 Willoughby Avenue",Brooklyn,"New York",11205,40.692255,-73.9642,1,rooftop,195,"Willoughby Ave",,,Brooklyn,NY,"Kings County",11205,US,"City of New York"
76,"Advantage U. Educational Consulting Services, LLC","261 New York Avenue",Brooklyn,"New York",11216,40.671006,-73.94745,1,rooftop,261,"New York Ave",,,Brooklyn,NY,"Kings County",11216,US,"City of New York"
77,"Aerospect Inc.","67 West Street",Brooklyn,"New York",11222,40.728705,-73.959203,1,rooftop,67,"West St",,,Brooklyn,NY,"Kings County",11222,US,"City of New York"
78,"Afforda Inc","966 East 34th Street",Brooklyn,"New York",11210,40.632646,-73.943903,1,rooftop,966,"E 34th St",,,Brooklyn,NY,"Kings County",11210,US,"City of New York"
79,"Affordable Locksmith & Hardware lll Inc","920 Utica Avenue",Brooklyn,"New York",11203,40.650619,-73.930457,1,rooftop,920,"Utica Ave",,,Brooklyn,NY,"Kings County",11203,US,"City of New York"
80,"AGAPE Family Therapy & Coaching LLC","495 Flatbush avenue",Brooklyn,"New York",11225,40.662206,-73.961558,1,rooftop,495,"Flatbush Ave",,,Brooklyn,NY,"Kings County",11225,US,"City of New York"
81,"Agarabi Engineering, PLLC","155 Water St",Brooklyn,"New York",11201,40.703205,-73.987762,1,rooftop,155,"Water St",,,Brooklyn,NY,"Kings County",11201,US,"City of New York"
82,"AGD Consulting, LLC","1364 East 58th Street",Brooklyn,"New York",11234,40.621143,-73.919544,1,rooftop,1364,"E 58th St",,,Brooklyn,NY,"Kings County",11234,US,"City of New York"
83,"Aiello Leasing Co., Inc.","1021 61st Street",Brooklyn,"New York",11219,40.631996,-74.004888,1,rooftop,1021,"61st St",,,Brooklyn,NY,"Kings County",11219,US,"City of New York"
84,"Airspace Design Inc.","41 Flatbush Avenue",Brooklyn,"New York",11217,40.687416,-73.979668,1,rooftop,41,"Flatbush Ave",,,Brooklyn,NY,"Kings County",11217,US,"City of New York"
85,"Ajna Dance Inc.","360 Smith St.",Brooklyn,"New York",11231,40.679301,-73.995902,1,rooftop,360,"Smith St",,,Brooklyn,NY,"Kings County",11231,US,"City of New York"
86,"Ajna Dance Inc.","360 Smith St.",Brooklyn,"New York",11231,40.679301,-73.995902,1,rooftop,360,"Smith St",,,Brooklyn,NY,"Kings County",11231,US,"City of New York"
87,"Akinola Law Group, P.C.","852 Pine Street",Brooklyn,"New York",11208,40.664286,-73.868352,1,rooftop,852,"Pine St",,,Brooklyn,NY,"Kings County",11208,US,"City of New York"
88,"Akiva Supplies, Inc.","63 Flushing Ave. Unit 218",Brooklyn,"New York",11205,40.698228,-73.975163,1,rooftop,63,"Flushing Ave",Unit,218,Brooklyn,NY,"Kings County",11205,US,"City of New York"
89,"AKSH Quality Contracting Corp","5620 1st Ave",Brooklyn,"New York",11220,40.646658,-74.023271,1,rooftop,5620,"1st Ave",,,Brooklyn,NY,"Kings County",11220,US,"City of New York"
90,"Studio AKTE","108 St Nicholas Avenue",Brooklyn,"New York",11237,40.705608,-73.918676,1,rooftop,108,"St Nicholas Ave",,,Brooklyn,NY,"Kings County",11237,US,"City of New York"
91,"Al Rasheed Group of Construction Inc.","992 Coney Island Ave 2R",Brooklyn,"New York",11230,40.633356,-73.967282,1,rooftop,992,"Coney Island Ave",Apt,2R,Brooklyn,NY,"Kings County",11230,US,"City of New York"
92,"Alayjiah Cleaning Services","899 Euclid Avenue",Brooklyn,"New York",11208,40.664607,-73.86904,1,rooftop,899,"Euclid Ave",,,Brooklyn,NY,"Kings County",11208,US,"City of New York"
93,"AldoRay Industries","1542 Atlantic Ave",Brooklyn,"New York",11213,40.677771,-73.940324,1,rooftop,1542,"Atlantic Ave",,,Brooklyn,NY,"Kings County",11213,US,"City of New York"
94,"Al-Freed Radiant Construction Corp.","8609 Bay 16th Street",Brooklyn,"New York",11214,40.607675,-74.004252,1,rooftop,8609,"Bay 16th St",,,Brooklyn,NY,"Kings County",11214,US,"City of New York"
95,"Alisme Law LLC","310 Beverley Rd",Brooklyn,"New York",11218,40.642837,-73.976816,1,rooftop,310,"Beverley Rd",,,Brooklyn,NY,"Kings County",11218,US,"City of New York"
96,"Alison Clarke","28 Old Fulton Street",Brooklyn,"New York",11201,40.702304,-73.993336,1,rooftop,28,"Old Fulton St",,,Brooklyn,NY,"Kings County",11201,US,"City of New York"
97,"All Access Golf LLC","12399 Flatlands Avenue",Brooklyn,"New York",11207,40.657117,-73.877017,1,rooftop,12399,"Flatlands Ave",,,Brooklyn,NY,"Kings County",11207,US,"City of New York"
98,"All American Electrical Corporation","308 Lefferts Avenue",Brooklyn,"New York",11225,40.662199,-73.951036,1,rooftop,308,"Lefferts Ave",,,Brooklyn,NY,"Kings County",11225,US,"City of New York"
99,"ALL AROUND TRANS, INC.","2433 KNAPP STREET",Brooklyn,"New York",11235,40.593639,-73.93262,1,rooftop,2433,"Knapp St",,,Brooklyn,NY,"Kings County",11235,US,"City of New York"
100,"All Boro Electric Corp.","2568 E 17th Street Ste 101",Brooklyn,"New York",11235,40.588557,-73.9527,1,rooftop,2568,"E 17th St",Ste,101,Brooklyn,NY,"Kings County",11235,US,"City of New York"
101,"All Boroughs LLC","7 Marcus Garvey Blvd",Brooklyn,"New York",11206,40.699801,-73.941245,1,rooftop,7,"Marcus Garvey Blvd",,,Brooklyn,NY,"Kings County",11206,US,"City of New York"
102,"All Kween LLC","1010 Hancock Street",Brooklyn,"New York",11221,40.687288,-73.915833,1,rooftop,1010,"Hancock St",,,Brooklyn,NY,"Kings County",11221,US,"City of New York"
103,"All Points Cleaning Service, LLC","672 46th Street",Brooklyn,"New York",11220,40.644856,-74.004063,1,rooftop,672,"46th St",,,Brooklyn,NY,"Kings County",11220,US,"City of New York"
104,"All Supplies United Corp.","130 Lee Ave",Brooklyn,"New York",11211,40.703686,-73.957962,1,rooftop,130,"Lee Ave",,,Brooklyn,NY,"Kings County",11211,US,"City of New York"
105,"All Volts Electrical, Inc.","640 Parkside Avenue",Brooklyn,"New York",11226,40.655989,-73.952322,1,range_interpolation,640,"Parkside Ave",,,Brooklyn,NY,"Kings County",11226,US,"TIGER/Line® dataset from the US Census Bureau"
106,"All1Code, LLC","704 Hinsdale Street",Brooklyn,"New York",11207,40.657342,-73.897122,1,rooftop,704,"Hinsdale St",,,Brooklyn,NY,"Kings County",11207,US,"City of New York"
107,"Allegra Burnette & Associates LLC","353 6th Avenue",Brooklyn,"New York",11215,40.670711,-73.981525,1,rooftop,353,"6th Ave",,,Brooklyn,NY,"Kings County",11215,US,"City of New York"
108,"Alliance Supply Inc.","1743 48 Street",Brooklyn,"New York",11204,40.629519,-73.981251,1,rooftop,1743,"48th St",,,Brooklyn,NY,"Kings County",11204,US,"City of New York"
109,"Alliance Trucking LLC","9017 Avenue K",Brooklyn,"New York",11236,40.637424,-73.901947,1,rooftop,9017,"Ave K",,,Brooklyn,NY,"Kings County",11236,US,"City of New York"
110,"Allstar Homecare Agency, Inc.","762 59 Street",Brooklyn,"New York",11220,40.636252,-74.00975,1,rooftop,762,"59th St",,,Brooklyn,NY,"Kings County",11220,US,"City of New York"
111,"Allure Wigs Inc.","806 Macdonough Street",Brooklyn,"New York",11233,40.684299,-73.914026,1,rooftop,806,"Mac Donough St",,,Brooklyn,NY,"Kings County",11233,US,"City of New York"
112,"Almat Urban LLC","78 Union Street",Brooklyn,"New York",11231,40.68463,-74.004254,1,rooftop,78,"Union St",,,Brooklyn,NY,"Kings County",11231,US,"City of New York"
113,"Alter Lev Inc.","1526 40 Street",Brooklyn,"New York",11218,40.636896,-73.981896,1,rooftop,1526,"40th St",,,Brooklyn,NY,"Kings County",11218,US,"City of New York"
114,"Alternative Reaction to Anger Inc.","1223 East 83rd Street",Brooklyn,"New York",11236,40.631576,-73.904878,1,rooftop,1223,"E 83rd St",,,Brooklyn,NY,"Kings County",11236,US,"City of New York"
115,"Altimate Environmental Solutions LLC","2017 Coyle Street",Brooklyn,"New York",11229,40.602756,-73.937279,1,rooftop,2017,"Coyle St",,,Brooklyn,NY,"Kings County",11229,US,"City of New York"
116,"Alyssa Meadows","558 Kingston Ave Apt# 4",Brooklyn,"New York",11203,40.660218,-73.942748,1,rooftop,558,"Kingston Ave",Apt,4,Brooklyn,NY,"Kings County",11203,US,"City of New York"
117,"Alzerina LLC","1535 East 14th Street Apt 5D",Brooklyn,"New York",11230,40.611923,-73.959641,1,rooftop,1535,"E 14th St",Apt,5D,Brooklyn,NY,"Kings County",11230,US,"City of New York"
118,"Amanda Phingbodhipakkiya","850 3rd Ave",Brooklyn,"New York",11232,40.658764,-74.003494,1,rooftop,850,"3rd Ave",,,Brooklyn,NY,"Kings County",11232,US,"City of New York"
119,"Amarachi Inc.","189 Bridge Street",Brooklyn,"New York",11201,40.698029,-73.984825,1,rooftop,189,"Bridge St",,,Brooklyn,NY,"Kings County",11201,US,"City of New York"
120,"Amazonia Construction Inc.","111 Broadway",Brooklyn,"New York",11249,40.710516,-73.964446,1,rooftop,111,Broadway,,,Brooklyn,NY,"Kings County",11249,US,"City of New York"
121,"Amelia Fowler","669 Franklin Avenue",Brooklyn,"New York",11238,40.675629,-73.956029,1,rooftop,669,"Franklin Ave",,,Brooklyn,NY,"Kings County",11238,US,"City of New York"
122,"American Architectural Products, Inc.","301 Stagg Street",Brooklyn,"New York",11206,40.710203,-73.937093,1,rooftop,301,"Stagg St",,,Brooklyn,NY,"Kings County",11206,US,"City of New York"
123,"American Architectural Windows, Inc.","301 Stagg Street",Brooklyn,"New York",11206,40.710203,-73.937093,1,rooftop,301,"Stagg St",,,Brooklyn,NY,"Kings County",11206,US,"City of New York"
124,"American Architectural Windows, Inc.","301 Stagg Street",Brooklyn,"New York",11206,40.710203,-73.937093,1,rooftop,301,"Stagg St",,,Brooklyn,NY,"Kings County",11206,US,"City of New York"
125,"American Builders & Contracting, Inc.","2433 Cropsey Avenue",Brooklyn,"New York",11214,40.593726,-73.994316,1,range_interpolation,2433,"Cropsey Ave",,,Brooklyn,NY,"Kings County",11214,US,"TIGER/Line® dataset from the US Census Bureau"
126,"American Commercial Equipment Repair Corp.","234 Meserole Street",Brooklyn,"New York",11206,40.708334,-73.939373,1,rooftop,234,"Meserole St",,,Brooklyn,NY,"Kings County",11206,US,"City of New York"
127,"American Design Language","372 Dekalb Avenue",Brooklyn,"New York",11205,40.689957,-73.962668,1,rooftop,372,"Dekalb Ave",,,Brooklyn,NY,"Kings County",11205,US,"City of New York"
128,AEES,"4016 Church Avenue",Brooklyn,"New York",11203,40.651178,-73.939445,1,rooftop,4016,"Church Ave",,,Brooklyn,NY,"Kings County",11203,US,"City of New York"
129,"American Environmental Assessment & Solutions, Inc.","679 LaFayette Avenue",Brooklyn,"New York",11216,40.690531,-73.946783,1,rooftop,679,"Lafayette Ave",,,Brooklyn,NY,"Kings County",11216,US,"City of New York"
130,"American Sign Language Learning Center, Inc.","1157 East 19th Street",Brooklyn,"New York",11230,40.622254,-73.956783,1,rooftop,1157,"E 19th St",,,Brooklyn,NY,"Kings County",11230,US,"City of New York"
131,"AMF Electrical Contracting Corp.","895 Dean Street",Brooklyn,"New York",11238,40.678701,-73.960311,1,rooftop,895,"Dean St",,,Brooklyn,NY,"Kings County",11238,US,"City of New York"
132,"AMGCM LLC","727 Crescent Street",Brooklyn,"New York",11208,40.66981,-73.868421,1,rooftop,727,"Crescent St",,,Brooklyn,NY,"Kings County",11208,US,"City of New York"
133,"AMS General Contractor Inc","110 Graham Avenue",Brooklyn,"New York",11206,40.705007,-73.942654,1,rooftop,110,"Graham Ave",,,Brooklyn,NY,"Kings County",11206,US,"City of New York"
134,"Amy Howell Architecture PLLC","552 Lafayette Avenue",Brooklyn,"New York",11205,40.689547,-73.952967,1,rooftop,552,"Lafayette Ave",,,Brooklyn,NY,"Kings County",11205,US,"City of New York"
135,"Anahsa, LLC","651 Carroll Street",Brooklyn,"New York",11215,40.674663,-73.979736,1,rooftop,651,"Carroll St",,,Brooklyn,NY,"Kings County",11215,US,"City of New York"
136,"Andre D. Wagner","1163 Gates Ave",Brooklyn,"New York",11221,40.691595,-73.920201,1,rooftop,1163,"Gates Ave",,,Brooklyn,NY,"Kings County",11221,US,"City of New York"
137,"Angela Moses Consultant Enterprise","546 Kosciusko Street",Brooklyn,"New York",11221,40.69134,-73.927879,0.5,place,,,,,Brooklyn,NY,"Kings County",11221,US,"TIGER/Line® dataset from the US Census Bureau"
138,"ANGELES Y MAS LLC","10 Shore Blvd.",Brooklyn,"New York",11235,40.582568,-73.954321,1,rooftop,10,"Shore Blvd",,,Brooklyn,NY,"Kings County",11235,US,"City of New York"
139,"Anise Medical PLLC","81 Willoughby St",Brooklyn,"New York",11201,40.692269,-73.985859,1,rooftop,81,"Willoughby St",,,Brooklyn,NY,"Kings County",11201,US,"City of New York"
140,"Ann Sophie LLC","1250 Ocean Avenue, 5L",Brooklyn,"New York",11230,40.63178,-73.957759,1,rooftop,1250,"Ocean Ave",Apt,5L,Brooklyn,NY,"Kings County",11230,US,"City of New York"
141,"Annadelle Spotless Cleaning and Painting  Inc.","579 East 85th Street",Brooklyn,"New York",11236,40.641568,-73.913435,1,rooftop,579,"E 85th St",,,Brooklyn,NY,"Kings County",11236,US,"City of New York"
142,"Anne Rehkopf Townsend","205 Warren Street 3F",Brooklyn,"New York",11201,40.687288,-73.995094,1,rooftop,205,"Warren St",Apt,3F,Brooklyn,NY,"Kings County",11201,US,"City of New York"
143,"Annies Ginger Elixir","102 South Oxford Street",Brooklyn,"New York",11217,40.686498,-73.973643,1,rooftop,102,"S Oxford St",,,Brooklyn,NY,"Kings County",11217,US,"City of New York"
144,"Paving Paths","377 Macon Street",Brooklyn,"New York",11233,40.682728,-73.936532,1,rooftop,377,"Macon St",,,Brooklyn,NY,"Kings County",11233,US,"City of New York"
145,"AoRa Development LLC","461 St. Marks Avenue",Brooklyn,"New York",11238,40.676654,-73.958886,1,rooftop,461,"St Marks Ave",,,Brooklyn,NY,"Kings County",11238,US,"City of New York"
146,"AoRa Development LLC","461 St. Marks Avenue",Brooklyn,"New York",11238,40.676654,-73.958886,1,rooftop,461,"St Marks Ave",,,Brooklyn,NY,"Kings County",11238,US,"City of New York"
147,"AP Security Services LLC","51 Ross Street 9c",Brooklyn,"New York",11249,40.703495,-73.964173,1,rooftop,51,"Ross St",Apt,9C,Brooklyn,NY,"Kings County",11249,US,"City of New York"
148,"Apex Car and Limousine Service Inc.","579 Smith Street (AKA 400 Hamilton Avenue)",Brooklyn,"New York",11231,40.672147,-73.999262,1,rooftop,579,"Smith St",,400,Brooklyn,NY,"Kings County",11231,US,"City of New York"
149,"Apex Car and Limousine Service Inc.","579 Smith Street (AKA 400 Hamilton Avenue)",Brooklyn,"New York",11231,40.672147,-73.999262,1,rooftop,579,"Smith St",,400,Brooklyn,NY,"Kings County",11231,US,"City of New York"
150,"APM Services Group Corp.","146 Walworth Street",Brooklyn,"New York",11205,40.694267,-73.954312,1,rooftop,146,"Walworth St",,,Brooklyn,NY,"Kings County",11205,US,"City of New York"
151,"April Robbins-Bobyn Consulting Group LLC","996 E 40th St",Brooklyn,"New York",11210,40.631011,-73.937995,1,rooftop,996,"E 40th St",,,Brooklyn,NY,"Kings County",11210,US,"City of New York"
152,"Architectural Forms, LLC","111 Broadway",Brooklyn,"New York",11249,40.710516,-73.964446,1,rooftop,111,Broadway,,,Brooklyn,NY,"Kings County",11249,US,"City of New York"
153,"Arco General Contractor, Inc.","929 Coney Island Avenue",Brooklyn,"New York",11230,40.634786,-73.967294,1,rooftop,929,"Coney Island Ave",,,Brooklyn,NY,"Kings County",11230,US,"City of New York"
154,"Ariber Speech Therapy PC","1386 Union Street",Brooklyn,"New York",11213,40.66842,-73.943979,1,rooftop,1386,"Union St",,,Brooklyn,NY,"Kings County",11213,US,"City of New York"
155,"ArkadaPlus Corp","1029 McDonald Avenue",Brooklyn,"New York",11230,40.628626,-73.97655,1,rooftop,1029,"McDonald Ave",,,Brooklyn,NY,"Kings County",11230,US,"City of New York"
156,Microtagged,"41 Flatbush Avenue Extension",Brooklyn,"New York",11217,40.687416,-73.979668,1,rooftop,41,"Flatbush Ave",,,Brooklyn,NY,"Kings County",11217,US,"City of New York"
157,"Around the Clock Tots LLC","145 Hemlock Street",Brooklyn,"New York",11208,40.686445,-73.871637,1,rooftop,145,"Hemlock St",,,Brooklyn,NY,"Kings County",11208,US,"City of New York"
158,"Arplast Poly & Packaging, Inc.","Brooklyn Navy Yard, Bldg. 292",Brooklyn,"New York",11205,40.660046,-73.945227,0.95,street_center,,"Brooklyn Ave",,,Brooklyn,NY,"Kings County",11203,US,"TIGER/Line® dataset from the US Census Bureau"
159,"Art for Film, LLC","399 Sands Street, Building 303, Suite 607",Brooklyn,"New York",11205,40.700097,-73.986734,0.69,street_center,,"Sands St",Bldg,303,Brooklyn,NY,"Kings County",11201,US,"TIGER/Line® dataset from the US Census Bureau"
160,"Crown Hill Theatre","750 Nostrand Avenue",Brooklyn,"New York",11216,40.673014,-73.950354,1,rooftop,750,"Nostrand Ave",,,Brooklyn,NY,"Kings County",11216,US,"City of New York"
161,"Art Pop! LLC","403 Ocean Avenue",Brooklyn,"New York",11226,40.653008,-73.961332,1,rooftop,403,"Ocean Ave",,,Brooklyn,NY,"Kings County",11226,US,"City of New York"
162,"Art Vox LLC","125 Borinquen Pl 612",Brooklyn,"New York",11211,40.71078,-73.954504,1,rooftop,125,"Borinquen Pl",Apt,612,Brooklyn,NY,"Kings County",11211,US,"City of New York"
163,"Arteaga LLC","110 Broadway",Brooklyn,"New York",11249,40.710234,-73.964892,1,rooftop,110,Broadway,,,Brooklyn,NY,"Kings County",11249,US,"City of New York"
164,"Artemis JV LLC","17 Chester Street",Brooklyn,"New York",11225,40.658223,-73.961056,1,rooftop,17,"Chester Ct",,,Brooklyn,NY,"Kings County",11225,US,"City of New York"
165,"Art's House, Inc","1001-1003 Surf Avenue",Brooklyn,"New York",11224,40.575616,-73.977872,0.9,nearest_rooftop_match,1001,"Surf Ave",,,Brooklyn,NY,"Kings County",11224,US,"City of New York"
166,"AS Community Consulting, Inc.","20 Goodwin Pl.",Brooklyn,"New York",11221,40.69187,-73.924692,1,range_interpolation,20,"Goodwin Pl",,,Brooklyn,NY,"Kings County",11221,US,"TIGER/Line® dataset from the US Census Bureau"
167,"As The Crow Walks LLC","69 Columbia Street",Brooklyn,"New York",11201,40.689388,-74.000445,1,rooftop,69,"Columbia St",,,Brooklyn,NY,"Kings County",11201,US,"City of New York"
168,"ASA Electric Inc","155 Tompkins Avenue",Brooklyn,"New York",11206,40.694024,-73.9459,1,rooftop,155,"Tompkins Ave",,,Brooklyn,NY,"Kings County",11206,US,"City of New York"
169,"Asari Electrical Contracting LLC","2568 East 17th Street",Brooklyn,"New York",11235,40.588557,-73.9527,1,rooftop,2568,"E 17th St",,,Brooklyn,NY,"Kings County",11235,US,"City of New York"
170,"Ash Contracting Corp.","1641 E 94th Street",Brooklyn,"New York",11236,40.632827,-73.892509,1,rooftop,1641,"E 94th St",,,Brooklyn,NY,"Kings County",11236,US,"City of New York"
171,"Ashli Urquhart Public Relations LLC","86 Fleet Pl",Brooklyn,"New York",11201,40.693214,-73.981916,1,rooftop,86,"Fleet Pl",,,Brooklyn,NY,"Kings County",11201,US,"City of New York"
172,"Asian Women Developers LLC","301 East 7th Street",Brooklyn,"New York",11218,40.644643,-73.972716,1,rooftop,301,"E 7th St",,,Brooklyn,NY,"Kings County",11218,US,"City of New York"
173,"Asiri Convenience Store Corp","1716 Mermaid Avenue",Brooklyn,"New York",11224,40.576468,-73.984818,1,range_interpolation,1716,"Mermaid Ave",,,Brooklyn,NY,"Kings County",11224,US,"TIGER/Line® dataset from the US Census Bureau"
174,"ASOA, LLC","479 Essex Street",Brooklyn,"New York",11208,40.672076,-73.880915,1,rooftop,479,"Essex St",,,Brooklyn,NY,"Kings County",11208,US,"City of New York"
175,"Aspire-Achieve, L.L.C.","109 Marlborough Road",Brooklyn,"New York",11226,40.647494,-73.965434,1,rooftop,109,"Marlborough Rd",,,Brooklyn,NY,"Kings County",11226,US,"City of New York"
176,"Assemblage Landscape Architecture DPC","540 President Street",Brooklyn,"New York",11215,40.677351,-73.985235,1,rooftop,540,"President St",,,Brooklyn,NY,"Kings County",11215,US,"City of New York"
177,"AT Interiors Inc.","263 Avenue S",Brooklyn,"New York",11223,40.601619,-73.975714,1,rooftop,263,"Ave S",,,Brooklyn,NY,"Kings County",11223,US,"City of New York"
178,"Atelier of Form and Function NY LLC","80 DeKalb Avenue",Brooklyn,"New York",11201,40.689742,-73.979941,1,rooftop,80,"Dekalb Ave",,,Brooklyn,NY,"Kings County",11201,US,"City of New York"
179,"Green Mustache","140 58th St.",Brooklyn,"New York",11220,40.645549,-74.023856,1,rooftop,140,"58th St",,,Brooklyn,NY,"Kings County",11220,US,"City of New York"
180,"Athena Consulting Group Inc.","195 Maple Street",Brooklyn,"New York",11225,40.660707,-73.954331,1,rooftop,195,"Maple St",,,Brooklyn,NY,"Kings County",11225,US,"City of New York"
181,"AT-Home Kare Assist LLC","165 Court St",Brooklyn,"New York",11201,40.688624,-73.992724,1,rooftop,165,"Court St",,,Brooklyn,NY,"Kings County",11201,US,"City of New York"
182,"Atlantic CPA","59 Pineapple St",Brooklyn,"New York",11201,40.698401,-73.993499,1,rooftop,59,"Pineapple St",,,Brooklyn,NY,"Kings County",11201,US,"City of New York"
183,"Atlas Safety Incorporated","461 Winthrop Street Apt 6D",Brooklyn,"New York",11203,40.657577,-73.944682,1,rooftop,461,"Winthrop St",Apt,6D,Brooklyn,NY,"Kings County",11203,US,"City of New York"
184,"ATLT Inc.","688 Sackett Street",Brooklyn,"New York",11217,40.67764,-73.981821,1,rooftop,688,"Sackett St",,,Brooklyn,NY,"Kings County",11217,US,"City of New York"
185,"Atmos Electric Service Corp.","7007 13th Avenue",Brooklyn,"New York",11228,40.62286,-74.004565,1,rooftop,7007,"13th Ave",,,Brooklyn,NY,"Kings County",11228,US,"City of New York"
186,"ATS Bus Corp.","880 Alabama Avenue",Brooklyn,"New York",11207,40.655011,-73.891374,1,rooftop,880,"Alabama Ave",,,Brooklyn,NY,"Kings County",11207,US,"City of New York"
187,"Attri Enterprises, Inc.","892 Metropolitan Avenue",Brooklyn,"New York",11211,40.714515,-73.939337,1,rooftop,892,"Metropolitan Ave",,,Brooklyn,NY,"Kings County",11211,US,"City of New York"
188,"Attri Enterprises, Inc.","892 Metropolitan Avenue",Brooklyn,"New York",11211,40.714515,-73.939337,1,rooftop,892,"Metropolitan Ave",,,Brooklyn,NY,"Kings County",11211,US,"City of New York"
189,"Audacious Inner Works Institute LLC","466 Quincy Street",Brooklyn,"New York",11221,40.68778,-73.942353,1,rooftop,466,"Quincy St",,,Brooklyn,NY,"Kings County",11221,US,"City of New York"
190,"August Public Inc","68 3rd St.",Brooklyn,"New York",11231,40.677623,-73.993583,1,rooftop,68,"3rd St",,,Brooklyn,NY,"Kings County",11231,US,"City of New York"
191,"August Public Inc","68 3rd St.",Brooklyn,"New York",11231,40.677623,-73.993583,1,rooftop,68,"3rd St",,,Brooklyn,NY,"Kings County",11231,US,"City of New York"
192,"Aujla Electric Corp.","2568 East 17th Street",Brooklyn,"New York",11235,40.588557,-73.9527,1,rooftop,2568,"E 17th St",,,Brooklyn,NY,"Kings County",11235,US,"City of New York"
193,"Aurora Lampworks Inc.","310 Scholes Street",Brooklyn,"New York",11206,40.70939,-73.93597,1,rooftop,310,"Scholes St",,,Brooklyn,NY,"Kings County",11206,US,"City of New York"
194,"Auster Agency","20 Jay Street",Brooklyn,"New York",11201,40.704091,-73.986694,1,rooftop,20,"Jay St",,,Brooklyn,NY,"Kings County",11201,US,"City of New York"
195,"Avalon Electrical Supply, Inc.","136 Quentin Road",Brooklyn,"New York",11223,40.605554,-73.981519,1,range_interpolation,136,"Quentin Rd",,,Brooklyn,NY,"Kings County",11223,US,"TIGER/Line® dataset from the US Census Bureau"
196,"Averent Wellness LLC","666 St Marks Avenue",Brooklyn,"New York",11216,40.675141,-73.951543,1,rooftop,666,"St Marks Ave",,,Brooklyn,NY,"Kings County",11216,US,"City of New York"
197,"AVID NYC Corp.","20 Crescent Street",Brooklyn,"New York",11208,40.688687,-73.873967,1,rooftop,20,"Crescent St",,,Brooklyn,NY,"Kings County",11208,US,"City of New York"
198,"AWICS Home Improvement and Paramount Services Group-PSG","962 East 31st Street",Brooklyn,"New York",11210,40.62775,-73.946218,1,rooftop,962,"E 31st St",,,Brooklyn,NY,"Kings County",11210,US,"City of New York"
199,"Ayano Hisa Photography, Inc.","875 4th Avenue",Brooklyn,"New York",11232,40.656152,-74.001806,1,rooftop,875,"4th Ave",,,Brooklyn,NY,"Kings County",11232,US,"City of New York"
200,"Ayena Construction Corp.","111 Broadway",Brooklyn,"New York",11249,40.710516,-73.964446,1,rooftop,111,Broadway,,,Brooklyn,NY,"Kings County",11249,US,"City of New York"
201,"Ayleet Productions LLC","1371 Eastern Parkway",Brooklyn,"New York",11233,40.668735,-73.92283,1,rooftop,1371,"Eastern Pkwy",,,Brooklyn,NY,"Kings County",11233,US,"City of New York"
202,"AZ CONTRACTING GROUP INC.","288 Bay 38th Street 4P",Brooklyn,"New York",11214,40.592966,-73.993969,1,rooftop,288,"Bay 38th St",Apt,4P,Brooklyn,NY,"Kings County",11214,US,"City of New York"
203,"AZ1 Construction Inc","632 OCEAN PARKWAY B2",Brooklyn,"New York",11230,40.632624,-73.97258,1,rooftop,632,"Ocean Pkwy",Apt,B2,Brooklyn,NY,"Kings County",11230,US,"City of New York"
204,"B & K General Contacting Inc.","818 Coney Island Avenue",Brooklyn,"New York",11218,40.637474,-73.968484,1,rooftop,818,"Coney Island Ave",,,Brooklyn,NY,"Kings County",11218,US,"City of New York"
205,"B & T Accounting Services LLC","116 Thomas S Boyland St",Brooklyn,"New York",11233,40.680876,-73.914208,1,rooftop,116,"Thomas S Boyland St",,,Brooklyn,NY,"Kings County",11233,US,"City of New York"
206,"B and S Construction Inc","442 Madison Street",Brooklyn,"New York",11221,40.685755,-73.940528,1,rooftop,442,"Madison St",,,Brooklyn,NY,"Kings County",11221,US,"City of New York"
207,"B Luxe Group, LLC","231 Tompkins Avenue",Brooklyn,"New York",11216,40.69112,-73.945322,1,rooftop,231,"Tompkins Ave",,,Brooklyn,NY,"Kings County",11216,US,"City of New York"
208,"Hair Heaven","517 Atlantic Ave",Brooklyn,"New York",11217,40.685372,-73.980399,1,rooftop,517,"Atlantic Ave",,,Brooklyn,NY,"Kings County",11217,US,"City of New York"
209,"B&F Office Equipment, LLC","63 Flushing Avenue",Brooklyn,"New York",11205,40.698228,-73.975163,1,rooftop,63,"Flushing Ave",,,Brooklyn,NY,"Kings County",11205,US,"City of New York"
210,"B&F Office Equipment, LLC","63 Flushing Avenue",Brooklyn,"New York",11205,40.698228,-73.975163,1,rooftop,63,"Flushing Ave",,,Brooklyn,NY,"Kings County",11205,US,"City of New York"
211,"B&H Art-in-Architecture Ltd.","543 Union Street",Brooklyn,"New York",11215,40.679236,-73.987519,1,range_interpolation,543,"Union St",,,Brooklyn,NY,"Kings County",11215,US,"TIGER/Line® dataset from the US Census Bureau"
212,"B. Brave by SK Wilbur, LLC","382 Montgomery Street",Brooklyn,"New York",11225,40.665346,-73.952111,1,rooftop,382,"Montgomery St",,,Brooklyn,NY,"Kings County",11225,US,"City of New York"
213,"B.O.B. General Contracting, Inc.","129 Atkins Avenue",Brooklyn,"New York",11208,40.676057,-73.879245,1,rooftop,129,"Atkins Ave",,,Brooklyn,NY,"Kings County",11208,US,"City of New York"
214,"BA Global Construction Corp.","524 Mcdonald Ave",Brooklyn,"New York",11218,40.641424,-73.979401,1,rooftop,524,"McDonald Ave",,,Brooklyn,NY,"Kings County",11218,US,"City of New York"
215,"BK Music Learning","1801 Dorchester Rd",Brooklyn,"New York",11226,40.640874,-73.961011,1,rooftop,1801,"Dorchester Rd",,,Brooklyn,NY,"Kings County",11226,US,"City of New York"
216,"Baby Phd LLC","55 Madison Street",Brooklyn,"New York",11238,40.684135,-73.956872,1,rooftop,55,"Madison St",,,Brooklyn,NY,"Kings County",11238,US,"City of New York"
217,"Back of The Club Production","1705 Dean St.",Brooklyn,"New York",11213,40.676021,-73.931559,1,rooftop,1705,"Dean St",,,Brooklyn,NY,"Kings County",11213,US,"City of New York"
218,"Back To Back Security Services, Inc.","689 Bushwick Avenue",Brooklyn,"New York",11221,40.697042,-73.931382,1,rooftop,689,"Bushwick Ave",,,Brooklyn,NY,"Kings County",11221,US,"City of New York"
219,"Baker Design Build, LLC","1281 Atlantic Avenue",Brooklyn,"New York",11216,40.678575,-73.948151,1,rooftop,1281,"Atlantic Ave",,,Brooklyn,NY,"Kings County",11216,US,"City of New York"
220,"Banu Construction Corp.","132 Montauk Avenue",Brooklyn,"New York",11208,40.67624,-73.878665,1,range_interpolation,132,"Montauk Ave",,,Brooklyn,NY,"Kings County",11208,US,"TIGER/Line® dataset from the US Census Bureau"
221,"Baobab Architects P.C.","1740 Ocean ave",Brooklyn,"New York",11230,40.6195,-73.955779,1,rooftop,1740,"Ocean Ave",,,Brooklyn,NY,"Kings County",11230,US,"City of New York"
222,"Barfield Public Relations, Inc.","638 Macon Street",Brooklyn,"New York",11233,40.68378,-73.92489,1,rooftop,638,"Macon St",,,Brooklyn,NY,"Kings County",11233,US,"City of New York"
223,"Barker Architecture Office PLLC","61 9th Street",Brooklyn,"New York",11215,40.673705,-73.995419,1,rooftop,61,"9th St",,,Brooklyn,NY,"Kings County",11215,US,"City of New York"
224,"Base One Security Patrol, LLC","155 Water Street  4th flr. 7/B",Brooklyn,"New York",11201,40.703205,-73.987762,0.95,rooftop,155,"Water St",Fl,4,Brooklyn,NY,"Kings County",11201,US,"City of New York"
225,"Basit N. Tariq Ambulette Service, Ltd","144 Pilling Street",Brooklyn,"New York",11207,40.686026,-73.905398,1,rooftop,144,"Pilling St",,,Brooklyn,NY,"Kings County",11207,US,"City of New York"
226,"My Battery Recyclers","95 Union Street",Brooklyn,"New York",11231,40.68477,-74.003945,1,rooftop,95,"Union St",,,Brooklyn,NY,"Kings County",11231,US,"City of New York"
227,"BPRT Construction of NY","1286 Prospect Place",Brooklyn,"New York",11213,40.673314,-73.93403,1,rooftop,1286,"Prospect Pl",,,Brooklyn,NY,"Kings County",11213,US,"City of New York"
228,"Bayridge Electric Corp","6508 6th Avenue",Brooklyn,"New York",11220,40.635039,-74.017402,1,rooftop,6508,"6th Ave",,,Brooklyn,NY,"Kings County",11220,US,"City of New York"
229,"Baysan Architecture, P.C.","785 Ocean Pkwy",Brooklyn,"New York",11230,40.629358,-73.970938,1,rooftop,785,"Ocean Pkwy",,,Brooklyn,NY,"Kings County",11230,US,"City of New York"
230,"B-Bullard LLC","822 Marcy Avenue",Brooklyn,"New York",11216,40.685404,-73.947362,1,rooftop,822,"Marcy Ave",,,Brooklyn,NY,"Kings County",11216,US,"City of New York"
231,"BCWT Consulting, LLC","550 Lexington Ave",Brooklyn,"New York",11221,40.688988,-73.938198,1,rooftop,550,"Lexington Ave",,,Brooklyn,NY,"Kings County",11221,US,"City of New York"
232,"BE Kollective Creative Consulting LLC","331 Greene Avenue",Brooklyn,"New York",11238,40.687737,-73.958111,1,rooftop,331,"Greene Ave",,,Brooklyn,NY,"Kings County",11238,US,"City of New York"
233,"Beach Boys Cleaning Services LLC","1262 E 59th Street",Brooklyn,"New York",11234,40.622569,-73.918785,1,rooftop,1262,"E 59th St",,,Brooklyn,NY,"Kings County",11234,US,"City of New York"
234,"Bear Magic Workshops, LLC","23 Rockaway Parkway,  Suite 2F",Brooklyn,"New York",11212,40.665572,-73.924742,1,rooftop,23,"Rockaway Pkwy",Apt,2F,Brooklyn,NY,"Kings County",11212,US,"City of New York"
235,"Beauty By Baze","832 Dekalb Ave",Brooklyn,"New York",11221,40.692215,-73.943106,1,rooftop,832,"Dekalb Ave",,,Brooklyn,NY,"Kings County",11221,US,"City of New York"
236,"Becky's Maintenance Corp.","132 Logan Street",Brooklyn,"New York",11208,40.683683,-73.878461,1,rooftop,132,"Logan St",,,Brooklyn,NY,"Kings County",11208,US,"City of New York"
237,"Bed Bug 911 Corp.","1323 East 15th Street",Brooklyn,"New York",11230,40.617403,-73.959795,1,rooftop,1323,"E 15th St",,,Brooklyn,NY,"Kings County",11230,US,"City of New York"
238,"Bed Stuy Kids, Inc","470 Jefferson Avenue",Brooklyn,"New York",11221,40.684395,-73.939155,1,rooftop,470,"Jefferson Ave",,,Brooklyn,NY,"Kings County",11221,US,"City of New York"
239,"Bedford Landscape Contractors, LLC","68 Jay Street",Brooklyn,"New York",11201,40.70268,-73.9868,1,rooftop,68,"Jay St",,,Brooklyn,NY,"Kings County",11201,US,"City of New York"
240,"Begu General Contractors Inc.","1712 Stillwell Avenue",Brooklyn,"New York",11223,40.604652,-73.986958,1,rooftop,1712,"Stillwell Ave",,,Brooklyn,NY,"Kings County",11223,US,"City of New York"
241,"Beltbar LLC","594 Dean Street",Brooklyn,"New York",11238,40.680538,-73.970171,1,rooftop,594,"Dean St",,,Brooklyn,NY,"Kings County",11238,US,"City of New York"
242,"Benjamin & Young, LLC","100 Jay Street",Brooklyn,"New York",11201,40.702278,-73.986925,1,rooftop,100,"Jay St",,,Brooklyn,NY,"Kings County",11201,US,"City of New York"
243,"BEnSol Tech LLC","736 Empire Blvd",Brooklyn,"New York",11213,40.663615,-73.937982,1,rooftop,736,"Empire Blvd",,,Brooklyn,NY,"Kings County",11213,US,"City of New York"
244,"Benzi & Goodrich Development Group LLC","1149 Rogers Ave",Brooklyn,"New York",11226,40.641874,-73.951353,1,rooftop,1149,"Rogers Ave",,,Brooklyn,NY,"Kings County",11226,US,"City of New York"
245,"Brightline Electrical","219 36th st",Brooklyn,"New York",11232,40.656585,-74.007983,1,rooftop,219,"36th St",,,Brooklyn,NY,"Kings County",11232,US,"City of New York"
246,"Bernard and Langford Construction Management LLC","479 Essex Street, 1st Floor",Brooklyn,"New York",11208,40.672076,-73.880915,1,rooftop,479,"Essex St",Fl,1,Brooklyn,NY,"Kings County",11208,US,"City of New York"
247,"Bernson LLC","2237 Schenectady Avenue",Brooklyn,"New York",11234,40.617289,-73.929432,1,rooftop,2237,"Schenectady Ave",,,Brooklyn,NY,"Kings County",11234,US,"City of New York"
248,"Bespoke Developers Inc","96 Brighton 11th Street",Brooklyn,"New York",11235,40.580482,-73.957539,1,rooftop,96,"Brighton 11th St",,,Brooklyn,NY,"Kings County",11235,US,"City of New York"
249,"Bespoken Communications LLC","415 Stratford Road",Brooklyn,"New York",11218,40.638252,-73.967505,1,rooftop,415,"Stratford Rd",,,Brooklyn,NY,"Kings County",11218,US,"City of New York"
250,"Best Medical Wear, LTD","34 Franklin Avenue",Brooklyn,"New York",11205,40.698177,-73.958883,1,rooftop,34,"Franklin Ave",,,Brooklyn,NY,"Kings County",11205,US,"City of New York"
251,"Beverly Road Development LLC","50 Bayard Street",Brooklyn,"New York",11211,40.71886,-73.950699,1,range_interpolation,50,"Bayard St",,,Brooklyn,NY,"Kings County",11211,US,"TIGER/Line® dataset from the US Census Bureau"
252,"Bevy Luxe LLC","377 Montgomery Street",Brooklyn,"New York",11225,40.665569,-73.952029,1,rooftop,377,"Montgomery St",,,Brooklyn,NY,"Kings County",11225,US,"City of New York"
253,"BIB Media, LLC","68 35th Street",Brooklyn,"New York",11232,40.656735,-74.007099,1,rooftop,68,"35th St",,,Brooklyn,NY,"Kings County",11232,US,"City of New York"
254,"BIB Media, LLC","68 35th Street",Brooklyn,"New York",11232,40.656735,-74.007099,1,rooftop,68,"35th St",,,Brooklyn,NY,"Kings County",11232,US,"City of New York"
255,"Bibi Notary Service LLC","4812 Beverley Road",Brooklyn,"New York",11203,40.64605,-73.931288,1,rooftop,4812,"Beverley Rd",,,Brooklyn,NY,"Kings County",11203,US,"City of New York"
256,"Bicycle Utopia, LLC","379 Washington Avenue",Brooklyn,"New York",11238,40.687218,-73.965433,1,rooftop,379,"Washington Ave",,,Brooklyn,NY,"Kings County",11238,US,"City of New York"
257,"Big Apple Car, Inc","169 Bay 17th Street",Brooklyn,"New York",11214,40.604452,-74.006629,1,rooftop,169,"Bay 17th St",,,Brooklyn,NY,"Kings County",11214,US,"City of New York"
258,"Big Duck Studio, Inc.","20 Jay Street, Suite 524",Brooklyn,"New York",11201,40.704091,-73.986694,1,rooftop,20,"Jay St",Ste,524,Brooklyn,NY,"Kings County",11201,US,"City of New York"
259,Superfine,"126 Front St",Brooklyn,"New York",11201-1116,40.702361,-73.98741,1,rooftop,126,"Front St",,,Brooklyn,NY,"Kings County",11201,US,"City of New York"
260,"Bigger Than Buildings LLC","142 George st",Brooklyn,"New York",11237,40.703803,-73.928876,1,rooftop,142,"George St",,,Brooklyn,NY,"Kings County",11237,US,"City of New York"
261,"Bijoy Construction Corp.","305 East 37th Street",Brooklyn,"New York",11203,40.649708,-73.942536,1,rooftop,305,"E 37th St",,,Brooklyn,NY,"Kings County",11203,US,"City of New York"
262,"BIMNYC LLC","155 Water Street",Brooklyn,"New York",11201,40.703205,-73.987762,1,rooftop,155,"Water St",,,Brooklyn,NY,"Kings County",11201,US,"City of New York"
263,"Chick-fil-A at Flatbush and Atlantic Ave. In-Line","166 Flatbush Ave",Brooklyn,"New York",11217,40.682814,-73.976772,1,rooftop,166,"Flatbush Ave",,,Brooklyn,NY,"Kings County",11217,US,"City of New York"
264,"BK Bumpkin","135 Coffey Street",Brooklyn,"New York",11231,40.676732,-74.015112,1,rooftop,135,"Coffey St",,,Brooklyn,NY,"Kings County",11231,US,"City of New York"
265,"BK Event Planning LLC","2359 Flatbush Ave",Brooklyn,"New York",11210,40.612881,-73.92555,0.96,rooftop,2359,"Flatbush Ave",,,Brooklyn,NY,"Kings County",11234,US,"City of New York"
266,"Alicia Does Yoga","247 Water Street",Brooklyn,"New York",11201,40.703076,-73.983919,1,rooftop,247,"Water St",,,Brooklyn,NY,"Kings County",11201,US,"City of New York"
267,"Black Bird Productions, LLC","49 Flatbush Avenue",Brooklyn,"New York",11217,40.6974,-73.984865,0.97,rooftop,49,"Flatbush Ave Ext",,,Brooklyn,NY,"Kings County",11201,US,"City of New York"
268,"Black Box Engineering, PLLC","13 Jefferson Street",Brooklyn,"New York",11206,40.6974,-73.935001,1,rooftop,13,"Jefferson St",,,Brooklyn,NY,"Kings County",11206,US,"City of New York"
269,"The Black Currency","1227 E 102nd Street",Brooklyn,"New York",11236,40.640737,-73.89066,1,rooftop,1227,"E 102nd St",,,Brooklyn,NY,"Kings County",11236,US,"City of New York"
270,"Blackrock Construction Group Inc.","82 Brighton 11 Street",Brooklyn,"New York",11235,40.580799,-73.95731,1,rooftop,82,"Brighton 11th St",,,Brooklyn,NY,"Kings County",11235,US,"City of New York"
271,"Blackstone Group of Construction Inc","1647 East 51 ST",Brooklyn,"New York",11234,40.620215,-73.925851,1,rooftop,1647,"E 51st St",,,Brooklyn,NY,"Kings County",11234,US,"City of New York"
272,"Blast Trans Inc.","1660 East New York Ave",Brooklyn,"New York",11212,40.673984,-73.906681,1,rooftop,1660,"E New York Ave",,,Brooklyn,NY,"Kings County",11212,US,"City of New York"
273,"Blentertainment Enterprises","750 Lexington Ave",Brooklyn,"New York",11221,40.690005,-73.929247,1,rooftop,750,"Lexington Ave",,,Brooklyn,NY,"Kings County",11221,US,"City of New York"
274,"Blessed Rodah Security Services Inc.","347 Rockaway Avenue",Brooklyn,"New York",11212,40.671567,-73.911074,1,rooftop,347,"Rockaway Ave",,,Brooklyn,NY,"Kings County",11212,US,"City of New York"
275,"Blink Supplies, Inc","5 Lorimer Street",Brooklyn,"New York",11206,40.700425,-73.953782,1,rooftop,5,"Lorimer St",,,Brooklyn,NY,"Kings County",11206,US,"City of New York"
276,"Blu Construction LLC","495 Flatbush Avenue",Brooklyn,"New York",11225,40.662206,-73.961558,1,rooftop,495,"Flatbush Ave",,,Brooklyn,NY,"Kings County",11225,US,"City of New York"
277,"Blue Cape LLC","195 Willoughby Avenue Unit 403",Brooklyn,"New York",11205,40.692255,-73.9642,1,rooftop,195,"Willoughby Ave",Apt,403,Brooklyn,NY,"Kings County",11205,US,"City of New York"
278,BlueLabel,"68 Jay Street, Unit E/34",Brooklyn,"New York",11201,40.70268,-73.9868,0.95,rooftop,68,"Jay St",Unit,E,Brooklyn,NY,"Kings County",11201,US,"City of New York"
279,BlueLabel,"68 Jay Street, Unit E/34",Brooklyn,"New York",11201,40.70268,-73.9868,0.95,rooftop,68,"Jay St",Unit,E,Brooklyn,NY,"Kings County",11201,US,"City of New York"
280,"Blue Roman LLC","5206 6th Avenue",Brooklyn,"New York",11220,40.642562,-74.009575,1,rooftop,5206,"6th Ave",,,Brooklyn,NY,"Kings County",11220,US,"City of New York"
281,"Blue Steel Auto School Inc","197 Utica Ave",Brooklyn,"New York",11213,40.671967,-73.930675,1,rooftop,197,"Utica Ave",,,Brooklyn,NY,"Kings County",11213,US,"City of New York"
282,"Blue Steel Protection Services LLC","1108 Rutland Road",Brooklyn,"New York",11212,40.664658,-73.923077,1,rooftop,1108,"Rutland Rd",,,Brooklyn,NY,"Kings County",11212,US,"City of New York"
283,"Pears Lane Publishing","274 Clifton Place",Brooklyn,"New York",11216,40.68876,-73.95339,1,rooftop,274,"Clifton Pl",,,Brooklyn,NY,"Kings County",11216,US,"City of New York"
284,"BlueCard Technologies Inc.","626 Flatbush Ave Apt 17A",Brooklyn,"New York",11225,40.657891,-73.960969,1,rooftop,626,"Flatbush Ave",Apt,17A,Brooklyn,NY,"Kings County",11225,US,"City of New York"
285,"BLUEPLANT LLC","288 Hamilton Ave",Brooklyn,"New York",11231,40.676081,-74.001857,1,rooftop,288,"Hamilton Ave",,,Brooklyn,NY,"Kings County",11231,US,"City of New York"
286,"Kingston Mon Group","80 Woodruff Avenue",Brooklyn,"New York",11226,40.653415,-73.963148,1,rooftop,80,"Woodruff Ave",,,Brooklyn,NY,"Kings County",11226,US,"City of New York"
287,"Blumarketing, LLC","5012 19th Avenue",Brooklyn,"New York",11204,40.626176,-73.979668,1,rooftop,5012,"19th Ave",,,Brooklyn,NY,"Kings County",11204,US,"City of New York"
288,"Bobtek Electrical Corporation","934 East 51 Street",Brooklyn,"New York",11203,40.638331,-73.928065,1,rooftop,934,"E 51st St",,,Brooklyn,NY,"Kings County",11203,US,"City of New York"
289,"Bobtek Electrical Corporation","934 East 51 Street",Brooklyn,"New York",11203,40.638331,-73.928065,1,rooftop,934,"E 51st St",,,Brooklyn,NY,"Kings County",11203,US,"City of New York"
290,"Body & Soul Hair Salon, LLC","2105 Flatbush Avenue",Brooklyn,"New York",11234,40.618415,-73.932011,1,rooftop,2105,"Flatbush Ave",,,Brooklyn,NY,"Kings County",11234,US,"City of New York"
291,"BOLT Architecture PLLC","635 Rogers Avenue",Brooklyn,"New York",11226,40.655984,-73.95287,1,rooftop,635,"Rogers Ave",,,Brooklyn,NY,"Kings County",11226,US,"City of New York"
292,"Bonjour Brooklyn Bakery Inc.","1154 Broadway",Brooklyn,"New York",11221,40.692703,-73.928617,1,rooftop,1154,Broadway,,,Brooklyn,NY,"Kings County",11221,US,"City of New York"
293,"Saint Petersburg Trade House","2702 West 15th Street",Brooklyn,"New York",11224,40.581602,-73.983673,1,rooftop,2702,"W 15th St",,,Brooklyn,NY,"Kings County",11224,US,"City of New York"
294,"Borkor Psychotherapy Services LCSW, PLLC","335 Fenimore Street",Brooklyn,"New York",11225,40.65875,-73.951404,1,rooftop,335,"Fenimore St",,,Brooklyn,NY,"Kings County",11225,US,"City of New York"
295,"BOSS Building Company","195 Broadway",Brooklyn,"New York",11221,40.709878,-73.961786,1,rooftop,195,Broadway,,,Brooklyn,NY,"Kings County",11211,US,"City of New York"
296,"Boundless Awareness, LLC","344 Degraw Street",Brooklyn,"New York",11231,40.683023,-73.993754,1,rooftop,344,"Degraw St",,,Brooklyn,NY,"Kings County",11231,US,"City of New York"
297,"Brand NB LLC","2250 Clarendon Road",Brooklyn,"New York",11226,40.642645,-73.955695,1,rooftop,2250,"Clarendon Rd",,,Brooklyn,NY,"Kings County",11226,US,"City of New York"
298,"Brass City Media, Inc.","521 Saint Marks Avenue",Brooklyn,"New York",11238,40.676192,-73.956711,1,rooftop,521,"St Marks Ave",,,Brooklyn,NY,"Kings County",11238,US,"City of New York"
299,"Breakthrough Solutions","30 Martense st. Ste LA",Brooklyn,"New York",11226,40.651138,-73.957986,1,rooftop,30,"Martense St",Ste,LA,Brooklyn,NY,"Kings County",11226,US,"City of New York"
300,"Breath of Life Expressions LLC","240 Water Street",Brooklyn,"New York",11201,40.702868,-73.984366,1,range_interpolation,240,"Water St",,,Brooklyn,NY,"Kings County",11201,US,"TIGER/Line® dataset from the US Census Bureau"
301,"Breitner Ciaccia Office of Architecture LLP","406 Graham Avenue",Brooklyn,"New York",11211,40.716935,-73.944615,1,rooftop,406,"Graham Ave",,,Brooklyn,NY,"Kings County",11211,US,"City of New York"
302,"Brentwood Building Restoration, Inc.","4604 3rd  Ave",Brooklyn,"New York",11220,40.649935,-74.01267,1,rooftop,4604,"3rd Ave",,,Brooklyn,NY,"Kings County",11220,US,"City of New York"
303,"Brentwood Building Restoration, Inc.","4604 3rd  Ave",Brooklyn,"New York",11220,40.649935,-74.01267,1,rooftop,4604,"3rd Ave",,,Brooklyn,NY,"Kings County",11220,US,"City of New York"
304,"Coffee Uplifts People","329 Gates Avenue",Brooklyn,"New York",11216,40.685921,-73.954126,1,rooftop,329,"Gates Ave",,,Brooklyn,NY,"Kings County",11216,US,"City of New York"
305,"Brewtopia Experience LLC","664 Lafayette Avenue",Brooklyn,"New York",11216,40.690411,-73.947764,1,rooftop,664,"Lafayette Ave",,,Brooklyn,NY,"Kings County",11216,US,"City of New York"
306,"Bridging Cultures Group Inc.","719 Westminster Rd",Brooklyn,"New York",11230,40.63164,-73.965264,1,rooftop,719,"Westminster Rd",,,Brooklyn,NY,"Kings County",11230,US,"City of New York"
307,"Bright Beginnings In Brooklyn Inc.","2719 FORD ST",Brooklyn,"New York",11235,40.587271,-73.935383,1,rooftop,2719,"Ford St",,,Brooklyn,NY,"Kings County",11235,US,"City of New York"
308,"Bright Smiles Childcare Corp.","2301 Kings Hwy",Brooklyn,"New York",11229,40.612432,-73.950213,1,rooftop,2301,"Kings Hwy",,,Brooklyn,NY,"Kings County",11229,US,"City of New York"
309,"Brisa Builders Development LLC","2009 Flatbush Avenue",Brooklyn,"New York",11234,40.620685,-73.934532,1,rooftop,2009,"Flatbush Ave",,,Brooklyn,NY,"Kings County",11234,US,"City of New York"
310,"Broad Construction Inc.","3102 Quentin Road",Brooklyn,"New York",11234,40.612296,-73.940186,1,rooftop,3102,"Quentin Rd",,,Brooklyn,NY,"Kings County",11234,US,"City of New York"
311,"Broad Construction Inc.","3102 Quentin Road",Brooklyn,"New York",11234,40.612296,-73.940186,1,rooftop,3102,"Quentin Rd",,,Brooklyn,NY,"Kings County",11234,US,"City of New York"
312,"Broadway Lumber Supplies Corp.","965 Broadway",Brooklyn,"New York",11221,40.69666,-73.934421,1,rooftop,965,Broadway,,,Brooklyn,NY,"Kings County",11221,US,"City of New York"
313,"Broadway Stages, LTD","203 Meserole Avenue",Brooklyn,"New York",11222,40.728764,-73.947961,1,rooftop,203,"Meserole Ave",,,Brooklyn,NY,"Kings County",11222,US,"City of New York"
314,"Brooklyn Diego Incorporated","66 Rockwell Place",Brooklyn,"New York",11217,40.688064,-73.979386,1,rooftop,66,"Rockwell Pl",,,Brooklyn,NY,"Kings County",11217,US,"City of New York"
315,"Brooklyn Eastern Standard LLC","3114 Snyder Avenue",Brooklyn,"New York",11226,40.648881,-73.947874,1,rooftop,3114,"Snyder Ave",,,Brooklyn,NY,"Kings County",11226,US,"City of New York"
316,"BROOKLYN ESSENCE, LLC","5317 Avenue M",Brooklyn,"New York",11234,40.621724,-73.923575,1,rooftop,5317,"Ave M",,,Brooklyn,NY,"Kings County",11234,US,"City of New York"
317,"Brooklyn Granola LLC","228 E. 19th Street",Brooklyn,"New York",11226,40.643991,-73.961234,1,rooftop,228,"E 19th St",,,Brooklyn,NY,"Kings County",11226,US,"City of New York"
318,"Brooklyn Kids Prep LLC","2215 E 23rd St",Brooklyn,"New York",11229,40.597178,-73.947866,1,rooftop,2215,"E 23rd St",,,Brooklyn,NY,"Kings County",11229,US,"City of New York"
319,"Brooklyn Martial Arts","293 Livingston Street",Brooklyn,"New York",11217,40.688283,-73.981921,1,rooftop,293,"Livingston St",,,Brooklyn,NY,"Kings County",11217,US,"City of New York"
320,"Brooklyn Packers LLC","224 Marcus Garvey Blvd.",Brooklyn,"New York",11221,40.690219,-73.939645,1,range_interpolation,224,"Marcus Garvey Blvd",,,Brooklyn,NY,"Kings County",11221,US,"TIGER/Line® dataset from the US Census Bureau"
321,"Brooklyn Tea","524 Nostrand Ave",Brooklyn,"New York",11216,40.680832,-73.949814,1,rooftop,524,"Nostrand Ave",,,Brooklyn,NY,"Kings County",11216,US,"City of New York"
322,"Brooklyn Tea","524 Nostrand Ave",Brooklyn,"New York",11216,40.680832,-73.949814,1,rooftop,524,"Nostrand Ave",,,Brooklyn,NY,"Kings County",11216,US,"City of New York"
323,"Brooklyn Trucking Industries, Inc.","27 Preston Court",Brooklyn,"New York",11234,40.638101,-73.924797,1,rooftop,27,"Preston Ct",,,Brooklyn,NY,"Kings County",11234,US,"City of New York"
324,Shelderado,"8313 Ditmas Avenue",Brooklyn,"New York",11236,40.645245,-73.919411,1,rooftop,8313,"Ditmas Ave",,,Brooklyn,NY,"Kings County",11236,US,"City of New York"
325,"Brothers Building Blocks, LLC","1351 Saint Johns Place Apt 3",Brooklyn,"New York",11213,40.670863,-73.933424,1,rooftop,1351,"St Johns Pl",Apt,3,Brooklyn,NY,"Kings County",11213,US,"City of New York"
326,"Brown Stone Studio","152 DeKalb Ave",Brooklyn,"New York",11217,40.689544,-73.974521,1,rooftop,152,"Dekalb Ave",,,Brooklyn,NY,"Kings County",11217,US,"City of New York"
327,"BRT PLANNING INTERNATIONAL, LLC","191 Luquer St",Brooklyn,"New York",11231,40.677047,-73.997817,1,rooftop,191,"Luquer St",,,Brooklyn,NY,"Kings County",11231,US,"City of New York"
328,"BT Express, Inc.","144 Pilling Street",Brooklyn,"New York",11207,40.686026,-73.905398,1,rooftop,144,"Pilling St",,,Brooklyn,NY,"Kings County",11207,US,"City of New York"
329,"BT Express, Inc.","144 Pilling Street",Brooklyn,"New York",11207,40.686026,-73.905398,1,rooftop,144,"Pilling St",,,Brooklyn,NY,"Kings County",11207,US,"City of New York"
330,"Bubbly Moon Naturals, LLC","1246 Madison Street",Brooklyn,"New York",11221,40.694596,-73.913313,1,rooftop,1246,"Madison St",,,Brooklyn,NY,"Kings County",11221,US,"City of New York"
331,"BugIn BugOut, Corporation","1789 Nostrand Avenue",Brooklyn,"New York",11226,40.642161,-73.948476,1,rooftop,1789,"Nostrand Ave",,,Brooklyn,NY,"Kings County",11226,US,"City of New York"
332,"Building Opportunities LLC","132 Saratoga Avenue",Brooklyn,"New York",11233,40.682222,-73.917198,1,rooftop,132,"Saratoga Ave",,,Brooklyn,NY,"Kings County",11233,US,"City of New York"
333,"Built by Kass LLC","168 Driggs Avenue 3L",Brooklyn,"New York",11222,40.723074,-73.945265,1,rooftop,168,"Driggs Ave",Apt,3L,Brooklyn,NY,"Kings County",11222,US,"City of New York"
334,"BusDev Solutions LLC","454 43rd Street",Brooklyn,"New York",11232,40.649437,-74.007156,1,rooftop,454,"43rd St",,,Brooklyn,NY,"Kings County",11232,US,"City of New York"
335,"Bushwick Grind, LLC","63 Whipple Street",Brooklyn,"New York",11206,40.701622,-73.944414,1,rooftop,63,"Whipple St",,,Brooklyn,NY,"Kings County",11206,US,"City of New York"
336,"Business Resource Solutions Group LLC","2796 Bedford Ave",Brooklyn,"New York",11210,40.6345,-73.953418,1,rooftop,2796,"Bedford Ave",,,Brooklyn,NY,"Kings County",11210,US,"City of New York"
337,"Twinkle Playspace","144 Frost Street",Brooklyn,"New York",11211,40.717901,-73.945653,1,rooftop,144,"Frost St",,,Brooklyn,NY,"Kings County",11211,US,"City of New York"
338,"BVC Consulting Inc","128 east 59th street",Brooklyn,"New York",11203,40.651158,-73.921768,1,rooftop,128,"E 59th St",,,Brooklyn,NY,"Kings County",11203,US,"City of New York"
339,"BWP General Construction Inc.","3064 Coney Island Avenue",Brooklyn,"New York",11235,40.581356,-73.960269,1,rooftop,3064,"Coney Island Ave",,,Brooklyn,NY,"Kings County",11235,US,"City of New York"
340,"By Mnemosyne","50 E 19th St Apt F5",Brooklyn,"New York",11226,40.648083,-73.961998,1,rooftop,50,"E 19th St",Apt,F5,Brooklyn,NY,"Kings County",11226,US,"City of New York"
341,"BYR Inc.","262 Hewes Street",Brooklyn,"New York",11211,40.705409,-73.954655,1,rooftop,262,"Hewes St",,,Brooklyn,NY,"Kings County",11211,US,"City of New York"
342,"C & D Iron Works, Inc.","194 Sackman Street",Brooklyn,"New York",11212,40.673401,-73.905981,1,rooftop,194,"Sackman St",,,Brooklyn,NY,"Kings County",11212,US,"City of New York"
343,"C & P Professional Consulting Services, LLC","230 East 31st Street",Brooklyn,"New York",11226,40.644944,-73.948119,1,rooftop,230,"E 31st St",,,Brooklyn,NY,"Kings County",11226,US,"City of New York"
344,"C&C Y Business & Marketing Services LLC","2821 Kings Highway",Brooklyn,"New York",11229,40.615373,-73.946194,1,rooftop,2821,"Kings Hwy",,,Brooklyn,NY,"Kings County",11229,US,"City of New York"
345,"C. A. Roze Consulting LLC","34 Plaza Street East #908",Brooklyn,"New York",11238,40.67539,-73.969422,1,rooftop,34,"Plaza St E",Apt,908,Brooklyn,NY,"Kings County",11238,US,"City of New York"
346,"C. Francis Construction Corp.","501 East 93rd Street",Brooklyn,"New York",11212,40.654804,-73.918229,1,rooftop,501,"E 93rd St",,,Brooklyn,NY,"Kings County",11212,US,"City of New York"
347,"C.A. MCCRAE, CPA, LLC","196 Flatbush Avenue",Brooklyn,"New York",11217,40.681623,-73.975904,1,rooftop,196,"Flatbush Ave",,,Brooklyn,NY,"Kings County",11217,US,"City of New York"
348,"Cafe Grumpy LLC","199 Diamond Street",Brooklyn,"New York",11222,40.728993,-73.948902,1,rooftop,199,"Diamond St",,,Brooklyn,NY,"Kings County",11222,US,"City of New York"
349,"CAKE Marketing LLC","3040 West 22nd Street",Brooklyn,"New York",11224,40.573246,-73.988714,1,rooftop,3040,"W 22nd St",,,Brooklyn,NY,"Kings County",11224,US,"City of New York"
350,"C.B.A., Inc.","590 Flatbush Avenue",Brooklyn,"New York",11225,40.659038,-73.960775,1,rooftop,590,"Flatbush Ave",,,Brooklyn,NY,"Kings County",11225,US,"City of New York"
351,"Calling All Graphics, Inc.","196 Bay 8th Street",Brooklyn,"New York",11228,40.607982,-74.014461,1,rooftop,196,"Bay 8th St",,,Brooklyn,NY,"Kings County",11228,US,"City of New York"
352,"CTH Maintenance Service & Supplies","460 Nostrand Ave.",Brooklyn,"New York",11216,40.683117,-73.950285,1,rooftop,460,"Nostrand Ave",,,Brooklyn,NY,"Kings County",11216,US,"City of New York"
353,"Camele White MD PC","385 Remsen Avenue",Brooklyn,"New York",11212,40.656295,-73.923606,1,rooftop,385,"Remsen Ave",,,Brooklyn,NY,"Kings County",11212,US,"City of New York"
354,"Canarsie Courier Publications Inc.","1142 East 92nd Street",Brooklyn,"New York",11236,40.641535,-73.9053,1,rooftop,1142,"E 92nd St",,,Brooklyn,NY,"Kings County",11236,US,"City of New York"
355,"CannaBklyn, LLC","42 Hicks street",Brooklyn,"New York",11201,40.700742,-73.993354,1,rooftop,42,"Hicks St",,,Brooklyn,NY,"Kings County",11201,US,"City of New York"
356,"Capoeira NYC, LLC","138 73rd Street",Brooklyn,"New York",11209,40.633859,-74.032132,1,rooftop,138,"73rd St",,,Brooklyn,NY,"Kings County",11209,US,"City of New York"
357,"Captivate Designs, Inc.","3323 Nostrand Avenue",Brooklyn,"New York",11229,40.602705,-73.942278,1,range_interpolation,3323,"Nostrand Ave",,,Brooklyn,NY,"Kings County",11229,US,"TIGER/Line® dataset from the US Census Bureau"
358,"Carapellucci Design LLC","57 Montague Street",Brooklyn,"New York",11201,40.695677,-73.997063,1,rooftop,57,"Montague St",,,Brooklyn,NY,"Kings County",11201,US,"City of New York"
359,"Carey Wagner Photography","314 Clinton Ave. #4A",Brooklyn,"New York",11205,40.688781,-73.968181,1,rooftop,314,"Clinton Ave",Apt,4A,Brooklyn,NY,"Kings County",11205,US,"City of New York"
360,"Carlin Solutions, LLC","1130 Bedford Avenue",Brooklyn,"New York",11216,40.685873,-73.954586,1,rooftop,1130,"Bedford Ave",,,Brooklyn,NY,"Kings County",11216,US,"City of New York"
361,"Carson Worldwide, LLC","1653 11th Avenue",Brooklyn,"New York",11215,40.656668,-73.976669,1,rooftop,1653,"11th Ave",,,Brooklyn,NY,"Kings County",11215,US,"City of New York"
362,"Cartridge Express Inc.","1114 48th Street",Brooklyn,"New York",11219,40.637888,-73.995589,1,rooftop,1114,"48th St",,,Brooklyn,NY,"Kings County",11219,US,"City of New York"
363,"Carved In Stone Construction Inc.","613 Linwood Street",Brooklyn,"New York",11208,40.670254,-73.881529,1,rooftop,613,"Linwood St",,,Brooklyn,NY,"Kings County",11208,US,"City of New York"
364,"CAFE FES","709 church avenue",Brooklyn,"New York",11218,40.64569,-73.972831,1,rooftop,709,"Church Ave",,,Brooklyn,NY,"Kings County",11218,US,"City of New York"
365,"Casa Kids","106 Ferris Street",Brooklyn,"New York",11231,40.677854,-74.017392,1,rooftop,106,"Ferris St",,,Brooklyn,NY,"Kings County",11231,US,"City of New York"
366,"Veneto Coffee","69 Grand St.",Brooklyn,"New York",11249,40.715942,-73.964784,1,rooftop,69,"Grand St",,,Brooklyn,NY,"Kings County",11249,US,"City of New York"
367,"Cassar Consulting LLC","653 Dekalb Ave, 1",Brooklyn,"New York",11216,40.691662,-73.949963,1,rooftop,653,"Dekalb Ave",Apt,1,Brooklyn,NY,"Kings County",11216,US,"City of New York"
368,"Castillo Security Services, Ltd.","511 74th Street",Brooklyn,"New York",11209,40.630204,-74.021828,1,rooftop,511,"74th St",,,Brooklyn,NY,"Kings County",11209,US,"City of New York"
369,"Cavalry LLC","462 36th Street",Brooklyn,"New York",11232,40.653143,-74.002684,1,rooftop,462,"36th St",,,Brooklyn,NY,"Kings County",11232,US,"City of New York"
370,"Cave Productions LLC","386 E 7th St",Brooklyn,"New York",11218,40.642465,-73.972699,1,rooftop,386,"E 7th St",,,Brooklyn,NY,"Kings County",11218,US,"City of New York"
371,"CCTM Consulting LLC","29A 1st Place",Brooklyn,"New York",11231,40.681248,-73.999552,1,rooftop,29,"1st Pl",,,Brooklyn,NY,"Kings County",11231,US,"City of New York"
372,CeeBaK,"1113 8Th Ave",Brooklyn,"New York",11215,40.664152,-73.980359,1,rooftop,1113,"8th Ave",,,Brooklyn,NY,"Kings County",11215,US,"City of New York"
373,"EM Arts","574 Jefferson Avenue",Brooklyn,"New York",11221,40.684883,-73.934971,1,rooftop,574,"Jefferson Ave",,,Brooklyn,NY,"Kings County",11221,US,"City of New York"
374,"Rest Assured Roofing","2443 E. 1st Street",Brooklyn,"New York",11223,40.589613,-73.968953,1,rooftop,2443,"E 1st St",,,Brooklyn,NY,"Kings County",11223,US,"City of New York"
375,"CG Global Management Solutions, LLC","175 Pearl Street",Brooklyn,"New York",11201,40.6996,-73.987698,1,rooftop,175,"Pearl St",,,Brooklyn,NY,"Kings County",11201,US,"City of New York"
376,"CG Spotless Cleaning, LLC","153 E 40th St.",Brooklyn,"New York",11203,40.652019,-73.93993,1,rooftop,153,"E 40th St",,,Brooklyn,NY,"Kings County",11203,US,"City of New York"
377,"Chamin Ajjan Psychotherapy, LCSW PLLC","26 Court Street",Brooklyn,"New York",11242,40.693338,-73.990857,1,rooftop,26,"Court St",,,Brooklyn,NY,"Kings County",11242,US,"City of New York"
378,"Chapter tOO, LLC","137 Montague Street",Brooklyn,"New York",11201,40.694785,-73.993819,1,rooftop,137,"Montague St",,,Brooklyn,NY,"Kings County",11201,US,"City of New York"
379,"Charles-Williams Construction Corp.","450 East 28th Street",Brooklyn,"New York",11226,40.63942,-73.950433,1,rooftop,450,"E 28th St",,,Brooklyn,NY,"Kings County",11226,US,"City of New York"
380,"Charmed & 37th LLC","222 Schenectady Avenue",Brooklyn,"New York",11213,40.671841,-73.933755,1,rooftop,222,"Schenectady Ave",,,Brooklyn,NY,"Kings County",11213,US,"City of New York"
381,"Charter Technology Solutions","132 32nd Street",Brooklyn,"New York",11232,40.657124,-74.003484,1,range_interpolation,132,"32nd St",,,Brooklyn,NY,"Kings County",11232,US,"TIGER/Line® dataset from the US Census Bureau"
382,"Cheeseboat LLC","80 Berry Street",Brooklyn,"New York",11249,40.719885,-73.957827,1,rooftop,80,"Berry St",,,Brooklyn,NY,"Kings County",11249,US,"City of New York"
383,"Chemistry Creative Inc.","305 Ten Eyck Street",Brooklyn,"New York",11206,40.711595,-73.936505,1,rooftop,305,"10 Eyck St",,,Brooklyn,NY,"Kings County",11206,US,"City of New York"
384,"Cheng Solutions LLC","25 Prospect Park West",Brooklyn,"New York",11215,40.670941,-73.971832,1,rooftop,25,"Prospect Park W",,,Brooklyn,NY,"Kings County",11215,US,"City of New York"
385,"Chervitality LLC","10409 Avenue K",Brooklyn,"New York",11236,40.644127,-73.891608,1,rooftop,10409,"Ave K",,,Brooklyn,NY,"Kings County",11236,US,"City of New York"
386,"Children Achieving Results Effectively LLC","4523 Avenue H",Brooklyn,"New York",11234,40.632778,-73.932407,1,rooftop,4523,"Ave H",,,Brooklyn,NY,"Kings County",11234,US,"City of New York"
387,"Chloe Taylor Technology","320 Sterling Street",Brooklyn,"New York",11225,40.663067,-73.95006,1,rooftop,320,"Sterling St",,,Brooklyn,NY,"Kings County",11225,US,"City of New York"
388,"Chocolate Cream Beauty LLC","2025 Nostrand Ave",Brooklyn,"New York",11210,40.636033,-73.947825,1,rooftop,2025,"Nostrand Ave",,,Brooklyn,NY,"Kings County",11210,US,"City of New York"
389,"Choice of Colors","35-10 Avenue H",Brooklyn,"New York",11210,40.600319,-73.984568,0.83,nearest_rooftop_match,34,"Ave S",,,Brooklyn,NY,"Kings County",11223,US,"City of New York"
390,"Chrissy Clean Services LLC","7014 13TH Ave",Brooklyn,"New York",11228,40.622902,-74.004944,1,rooftop,7014,"13th Ave",,,Brooklyn,NY,"Kings County",11228,US,"City of New York"
391,"Blake & Milford Daycare Center","334 Milford Street",Brooklyn,"New York",11208,40.670961,-73.876376,1,rooftop,334,"Milford St",,,Brooklyn,NY,"Kings County",11208,US,"City of New York"
392,"Christlie G. Consulting LLC","426 East 22nd Street",Brooklyn,"New York",11226,40.64158,-73.957437,1,rooftop,426,"E 22nd St",,,Brooklyn,NY,"Kings County",11226,US,"City of New York"
393,"Chrysalis Archaeological Consultants, Inc.","4110 Quentin Road",Brooklyn,"New York",11234,40.617038,-73.932801,1,rooftop,4110,"Quentin Rd",,,Brooklyn,NY,"Kings County",11234,US,"City of New York"
394,"Churchgate Protective Services","747 Lexington Avenue",Brooklyn,"New York",11221,40.690151,-73.931283,1,rooftop,747,"Lexington Ave",,,Brooklyn,NY,"Kings County",11221,US,"City of New York"
395,"Ciaooo! Media Group LLC","1638 72nd St",Brooklyn,"New York",11204,40.617266,-73.998071,1,rooftop,1638,"72nd St",,,Brooklyn,NY,"Kings County",11204,US,"City of New York"
396,"Citi Mosaic Real Estate, LLC","382 Lefferts Avenue",Brooklyn,"New York",11225,40.662315,-73.94876,1,rooftop,382,"Lefferts Ave",,,Brooklyn,NY,"Kings County",11225,US,"City of New York"
397,"CITIBIN Inc","254 36th Street Suite B519",Brooklyn,"New York",11232,40.656012,-74.007414,1,rooftop,254,"36th St",Ste,B519,Brooklyn,NY,"Kings County",11232,US,"City of New York"
398,"CITY BUILDING NY ARCHITECT P.C.","802 64th Street 3H",Brooklyn,"New York",11220,40.633028,-74.011754,1,rooftop,802,"64th St",Ste,3H,Brooklyn,NY,"Kings County",11220,US,"City of New York"
399,"City Express Construction Corp","434 Riverdale Ave",Brooklyn,"New York",11207,40.662131,-73.900026,1,range_interpolation,434,"Riverdale Ave",,,Brooklyn,NY,"Kings County",11207,US,"TIGER/Line® dataset from the US Census Bureau"
400,"City Glass & Architectural Metal G.C Inc.","80 Richard Street",Brooklyn,"New York",11231,40.679305,-74.008091,1,rooftop,80,"Richards St",,,Brooklyn,NY,"Kings County",11231,US,"City of New York"
401,"City Grid Electric Corp.","801 Church Ave",Brooklyn,"New York",11218,40.646141,-73.971714,1,rooftop,801,"Church Ave",,,Brooklyn,NY,"Kings County",11218,US,"City of New York"
402,"City Merchandise Inc.","228 40th Street",Brooklyn,"New York",11232,40.65409,-74.010305,1,rooftop,228,"40th St",,,Brooklyn,NY,"Kings County",11232,US,"City of New York"
403,"City Merchandise Inc.","228 40th Street",Brooklyn,"New York",11232,40.65409,-74.010305,1,rooftop,228,"40th St",,,Brooklyn,NY,"Kings County",11232,US,"City of New York"
404,"Citywide Paving Incorporated","230 Randolph Street",Brooklyn,"New York",11237,40.70996,-73.924029,1,rooftop,230,"Randolph St",,,Brooklyn,NY,"Kings County",11237,US,"City of New York"
405,"Claudia Giselle Design LLC","350 53rd Street",Brooklyn,"New York",11220,40.645235,-74.01531,1,rooftop,350,"53rd St",,,Brooklyn,NY,"Kings County",11220,US,"City of New York"
406,"Clean Collection, Inc","202 Sheffield",Brooklyn,"New York",11207,40.672327,-73.897185,1,range_interpolation,202,"Sheffield Ave",,,Brooklyn,NY,"Kings County",11207,US,"TIGER/Line® dataset from the US Census Bureau"
407,"Clean to the Max, LLC","1074 Ralph Avenue",Brooklyn,"New York",11236,40.648933,-73.920633,1,rooftop,1074,"Ralph Ave",,,Brooklyn,NY,"Kings County",11236,US,"City of New York"
408,"CLEANING EQUIPMENT MAINTENANCE CORP","791 E 91st Street",Brooklyn,"New York",11236,40.648052,-73.913122,1,rooftop,791,"E 91st St",,,Brooklyn,NY,"Kings County",11236,US,"City of New York"
409,"Cleat Interiors Inc","392 East 48th Street",Brooklyn,"New York",11203,40.652381,-73.932527,1,rooftop,392,"E 48th St",,,Brooklyn,NY,"Kings County",11203,US,"City of New York"
410,"Clinton Hill Sand Box Corp.","417 Myrtle Avenue",Brooklyn,"New York",11205,40.693229,-73.969157,1,rooftop,417,"Myrtle Ave",,,Brooklyn,NY,"Kings County",11205,US,"City of New York"
411,"Cloe Luv LLC","514 Atlantic Ave",Brooklyn,"New York",11217,40.685317,-73.981114,1,rooftop,514,"Atlantic Ave",,,Brooklyn,NY,"Kings County",11217,US,"City of New York"
412,"Cmani's Delights","728 East New York Avenue",Brooklyn,"New York",11203,40.662085,-73.938387,1,rooftop,728,"E New York Ave",,,Brooklyn,NY,"Kings County",11203,US,"City of New York"
413,"CMK Engineering, PLLC","42 West Street",Brooklyn,"New York",11222,40.728043,-73.958836,1,rooftop,42,"West St",,,Brooklyn,NY,"Kings County",11222,US,"City of New York"
414,"CNS Construction, Inc.","1620 10th Avenue",Brooklyn,"New York",11215,40.658836,-73.978457,1,range_interpolation,1620,"10th Ave",,,Brooklyn,NY,"Kings County",11215,US,"TIGER/Line® dataset from the US Census Bureau"
415,"CNW Cleaning Service, Inc.","309 Lafayette Avenue",Brooklyn,"New York",11238,40.688736,-73.963587,1,rooftop,309,"Lafayette Ave",,,Brooklyn,NY,"Kings County",11238,US,"City of New York"
416,"CNZ Contracting, Inc.","260 52nd Street",Brooklyn,"New York",11220,40.646958,-74.016618,1,rooftop,260,"52nd St",,,Brooklyn,NY,"Kings County",11220,US,"City of New York"
417,"CO Adaptive Architecture, PLLC","399 Sands Street",Brooklyn,"New York",11205,40.700097,-73.986734,0.69,street_center,,"Sands St",,,Brooklyn,NY,"Kings County",11201,US,"TIGER/Line® dataset from the US Census Bureau"
418,"Coaxum Connects LLC","1340 Bergen Street, Apt 6",Brooklyn,"New York",11213,40.675431,-73.940358,1,rooftop,1340,"Bergen St",Apt,6,Brooklyn,NY,"Kings County",11213,US,"City of New York"
419,"Cobb Accounting & Tax Inc","1293 Schenectady Avenue",Brooklyn,"New York",11203,40.641101,-73.931928,1,rooftop,1293,"Schenectady Ave",,,Brooklyn,NY,"Kings County",11203,US,"City of New York"
420,"Coditivity Inc.","9705 Avenue K 2nd Flr",Brooklyn,"New York",11236,40.640689,-73.896889,1,rooftop,9705,"Ave K",Fl,2,Brooklyn,NY,"Kings County",11236,US,"City of New York"
421,"Coin Cafe Inc.","66 Meserole Ave",Brooklyn,"New York",11222,40.726356,-73.95462,1,rooftop,66,"Meserole Ave",,,Brooklyn,NY,"Kings County",11222,US,"City of New York"
422,"Colberg Architecture","31 Smith Street",Brooklyn,"New York",11201,40.690619,-73.987625,1,rooftop,31,"Smith St",,,Brooklyn,NY,"Kings County",11201,US,"City of New York"
423,"Colina Bay, Inc","269 68th Street",Brooklyn,"New York",11220,40.636941,-74.026227,1,rooftop,269,"68th St",,,Brooklyn,NY,"Kings County",11220,US,"City of New York"
424,"Collab Studio, Inc.","309 Starr Street",Brooklyn,"New York",11237,40.707657,-73.920821,1,rooftop,309,"Starr St",,,Brooklyn,NY,"Kings County",11237,US,"City of New York"
425,"Collective Fare Enterprises Inc.","345A Nostrand Ave",Brooklyn,"New York",11216,40.686497,-73.950654,1,rooftop,345,"Nostrand Ave",,,Brooklyn,NY,"Kings County",11216,US,"City of New York"
426,"Colonia Architecture & Engineering, PLLC","365 Westminster Road",Brooklyn,"New York",11218,40.640356,-73.966978,1,rooftop,365,"Westminster Rd",,,Brooklyn,NY,"Kings County",11218,US,"City of New York"
427,"Colored Girls Hustle, LLC","1690 President Street",Brooklyn,"New York",11213,40.666832,-73.930962,1,rooftop,1690,"President St",,,Brooklyn,NY,"Kings County",11213,US,"City of New York"
428,CC1,"1164 Sutter Ave.",Brooklyn,"New York",11208,40.672228,-73.87501,1,rooftop,1164,"Sutter Ave",,,Brooklyn,NY,"Kings County",11208,US,"City of New York"
429,"Compliance Organized LLC","545 Washington Ave",Brooklyn,"New York",11238,40.681857,-73.964331,1,rooftop,545,"Washington Ave",,,Brooklyn,NY,"Kings County",11238,US,"City of New York"
430,"Compliment Security Services, Inc","1726 E 53rd St",Brooklyn,"New York",11234,40.616272,-73.923903,1,rooftop,1726,"E 53rd St",,,Brooklyn,NY,"Kings County",11234,US,"City of New York"
431,"Comprehensive Consent, Inc.","1198 Hancock St.",Brooklyn,"New York",11221,40.691392,-73.911791,1,rooftop,1198,"Hancock St",,,Brooklyn,NY,"Kings County",11221,US,"City of New York"
432,CompuVoip,"324 Grand Avenue",Brooklyn,"New York",11238-1924,40.686584,-73.962588,1,rooftop,324,"Grand Ave",,,Brooklyn,NY,"Kings County",11238,US,"City of New York"
433,"Computize! Consulting, Inc.","155 Water St",Brooklyn,"New York",11201,40.703205,-73.987762,1,rooftop,155,"Water St",,,Brooklyn,NY,"Kings County",11201,US,"City of New York"
434,"Concentric Consulting Group LLC","535 Dean Street",Brooklyn,"New York",11217,40.681439,-73.972255,1,rooftop,535,"Dean St",,,Brooklyn,NY,"Kings County",11217,US,"City of New York"
435,"SQ Contracting","571 Kosciusko st",Brooklyn,"New York",11221,40.69134,-73.927879,0.5,place,,,,,Brooklyn,NY,"Kings County",11221,US,"TIGER/Line® dataset from the US Census Bureau"
436,"Concord Construction of New York, Inc.","1552 West 2nd Street",Brooklyn,"New York",11204,40.609488,-73.976261,1,rooftop,1552,"W 2nd St",,,Brooklyn,NY,"Kings County",11204,US,"City of New York"
437,"Confirmed Booking Network LLC","38 6th Ave STE 1005",Brooklyn,"New York",11217,40.681966,-73.974222,1,rooftop,38,"6th Ave",Apt,1005,Brooklyn,NY,"Kings County",11217,US,"City of New York"
438,"Conformity Habitat LLC","33 Bond Street",Brooklyn,"New York",11201,40.688538,-73.983586,1,rooftop,33,"Bond St",,,Brooklyn,NY,"Kings County",11201,US,"City of New York"
439,"Connecting Forward LLC","636 Prospect Place",Brooklyn,"New York",11216,40.674739,-73.955635,1,rooftop,636,"Prospect Pl",,,Brooklyn,NY,"Kings County",11216,US,"City of New York"
440,"Consultants for Educational Excellence","105-31 Flatlands 2nd Street",Brooklyn,"New York",11236,40.645429,-73.890944,1,rooftop,105-31,"Flatlands 2nd St",,,Brooklyn,NY,"Kings County",11236,US,"City of New York"
441,"Context Lab 360, LLC","131 Lincoln Road",Brooklyn,"New York",11225,40.661285,-73.958298,1,rooftop,131,"Lincoln Rd",,,Brooklyn,NY,"Kings County",11225,US,"City of New York"
442,"Control Electropolishing Corp.","109 Walworth Street",Brooklyn,"New York",11205,40.695468,-73.954338,1,rooftop,109,"Walworth St",,,Brooklyn,NY,"Kings County",11205,US,"City of New York"
443,"Cooper Tank & Welding Corp.","123 Varick Avenue",Brooklyn,"New York",11237,40.709914,-73.928135,1,rooftop,123,"Varick Ave",,,Brooklyn,NY,"Kings County",11237,US,"City of New York"
444,"The Soap Box","110 Saratoga Avenue",Brooklyn,"New York",11233,40.683006,-73.917347,1,rooftop,110,"Saratoga Ave",,,Brooklyn,NY,"Kings County",11233,US,"City of New York"
445,"The Soap Box","110 Saratoga Avenue",Brooklyn,"New York",11233,40.683006,-73.917347,1,rooftop,110,"Saratoga Ave",,,Brooklyn,NY,"Kings County",11233,US,"City of New York"
446,"Core Construction Group LLC","1439 Ocean Ave apt b9",Brooklyn,"New York",11230,40.62694,-73.956427,1,rooftop,1439,"Ocean Ave",Apt,B9,Brooklyn,NY,"Kings County",11230,US,"City of New York"
447,"Corona Industries Corp.","97 Knickerbocker Avenue",Brooklyn,"New York",11237,40.705394,-73.929692,1,rooftop,97,"Knickerbocker Ave",,,Brooklyn,NY,"Kings County",11237,US,"City of New York"
448,"CosmoPro Corp.","63 Flushing Avenue",Brooklyn,"New York",11205,40.698228,-73.975163,1,rooftop,63,"Flushing Ave",,,Brooklyn,NY,"Kings County",11205,US,"City of New York"
449,"Love it Renovations","300 E 48th Street",Brooklyn,"New York",11203,40.654686,-73.932853,1,rooftop,300,"E 48th St",,,Brooklyn,NY,"Kings County",11203,US,"City of New York"
450,"Court Street Office Supplies Inc.","139 11th Street",Brooklyn,"New York",11201,40.670796,-73.992874,0.98,rooftop,139,"11th St",,,Brooklyn,NY,"Kings County",11215,US,"City of New York"
451,"Cowan Consulting, LC","575 Classon Avenue",Brooklyn,"New York",11238,40.681094,-73.958298,1,rooftop,575,"Classon Ave",,,Brooklyn,NY,"Kings County",11238,US,"City of New York"
452,"Cracking Good, LLC","37 Carroll Street",Brooklyn,"New York",11231,40.683387,-74.004494,1,rooftop,37,"Carroll St",,,Brooklyn,NY,"Kings County",11231,US,"City of New York"
453,"Create The Remarkable, Inc.","280 Grand Street",Brooklyn,"New York",11211,40.713053,-73.957922,1,rooftop,280,"Grand St",,,Brooklyn,NY,"Kings County",11211,US,"City of New York"
454,"Creative Touch Construction Corp.","817 Foster Avenue",Brooklyn,"New York",11230,40.631508,-73.968815,1,rooftop,817,"Foster Ave",,,Brooklyn,NY,"Kings County",11230,US,"City of New York"
455,"Creative Urban Alchemy LLC","1073 East 36th Street",Brooklyn,"New York",11210,40.62449,-73.940486,1,rooftop,1073,"E 36th St",,,Brooklyn,NY,"Kings County",11210,US,"City of New York"
456,"Creative Women Build LLC","1599 Bergen Street apt 2L",Brooklyn,"New York",11213,40.675125,-73.930148,1,rooftop,1599,"Bergen St",Apt,2L,Brooklyn,NY,"Kings County",11213,US,"City of New York"
457,"CreativeLee Catered LLC","7 Clermont Avenue",Brooklyn,"New York",11205,40.697579,-73.971576,1,rooftop,7,"Clermont Ave",,,Brooklyn,NY,"Kings County",11205,US,"City of New York"
458,"Cross Island Mechanical Corp","41 Box Street Suite 300",Brooklyn,"New York",11222,40.737452,-73.954665,1,rooftop,41,"Box St",Ste,300,Brooklyn,NY,"Kings County",11222,US,"City of New York"
459,"CS Electrical Contractor Corp.","495 Flatbush Avenue",Brooklyn,"New York",11225,40.662206,-73.961558,1,rooftop,495,"Flatbush Ave",,,Brooklyn,NY,"Kings County",11225,US,"City of New York"
460,"C-Suite Coach","175 Pearl Street",Brooklyn,"New York",11201,40.6996,-73.987698,1,rooftop,175,"Pearl St",,,Brooklyn,NY,"Kings County",11201,US,"City of New York"
461,"CTG LOGISTICS INC.","241 37th Street",Brooklyn,"New York",11232,40.655913,-74.008279,1,rooftop,241,"37th St",,,Brooklyn,NY,"Kings County",11232,US,"City of New York"
462,Numina,"370 Jay Street",Brooklyn,"New York",11201,40.692744,-73.987435,1,rooftop,370,"Jay St",,,Brooklyn,NY,"Kings County",11201,US,"City of New York"
463,"Cuddle Avenue Daycare LLC","69 16th Street",Brooklyn,"New York",11215,40.667098,-73.993955,1,rooftop,69,"16th St",,,Brooklyn,NY,"Kings County",11215,US,"City of New York"
464,"Curastory Inc.","284 Humboldt Street",Brooklyn,"New York",11206,40.711559,-73.94207,1,rooftop,284,"Humboldt St",,,Brooklyn,NY,"Kings County",11206,US,"City of New York"
465,"Custodial Linked Employment and Apprenticeships for the Neighborhood","1428 Pitkin Avenue",Brooklyn,"New York",11233,40.668292,-73.920885,1,rooftop,1428,"Pitkin Ave",,,Brooklyn,NY,"Kings County",11233,US,"City of New York"
466,"CYBERTHICS DIGITAL SOLUTIONS LLC","1752 E 9TH STREET",Brooklyn,"New York",11223,40.60655,-73.963815,1,rooftop,1752,"E 9th St",,,Brooklyn,NY,"Kings County",11223,US,"City of New York"
467,"Dg electrical systems llc","1616 Mermaid Ave",Brooklyn,"New York",11224,40.57656,-73.984255,1,rooftop,1616,"Mermaid Ave",,,Brooklyn,NY,"Kings County",11224,US,"City of New York"
468,"D A Surgical Supply, Inc.","10 Neptune Ave",Brooklyn,"New York",11235-4405,40.582819,-73.954616,1,rooftop,10,"Neptune Ave",,,Brooklyn,NY,"Kings County",11235,US,"City of New York"
469,"D Precision Mechanical LLC","1193 East 56th Street",Brooklyn,"New York",11234,40.626703,-73.921661,1,rooftop,1193,"E 56th St",,,Brooklyn,NY,"Kings County",11234,US,"City of New York"
470,"D&L Expert Private Investigators & Law Enforcement Consultants","760 Madison Street",Brooklyn,"New York",11221,40.687262,-73.927456,1,rooftop,760,"Madison St",,,Brooklyn,NY,"Kings County",11221,US,"City of New York"
471,"D&S Visions Home Improvement LLC","275 Park Avenue, Suite A",Brooklyn,"New York",11205,40.696109,-73.968135,1,rooftop,275,"Park Ave",Apt,A,Brooklyn,NY,"Kings County",11205,US,"City of New York"
472,"Dadapt LLC","20 East 92nd St",Brooklyn,"New York",11212,40.66349,-73.929603,1,rooftop,20,"E 92nd St",,,Brooklyn,NY,"Kings County",11212,US,"City of New York"
473,"DAG Security Service Inc.","2815 Beverley Road",Brooklyn,"New York",11226,40.645172,-73.950365,1,rooftop,2815,"Beverley Rd",,,Brooklyn,NY,"Kings County",11226,US,"City of New York"
474,"Dagan Catering","6187 Strickland Avenue",Brooklyn,"New York",11234,40.613631,-73.912235,1,rooftop,6187,"Strickland Ave",,,Brooklyn,NY,"Kings County",11234,US,"City of New York"
475,"Damihue, Inc.","999 Atlantic Ave,",Brooklyn,"New York",11238,40.680191,-73.959123,1,rooftop,999,"Atlantic Ave",,,Brooklyn,NY,"Kings County",11238,US,"City of New York"
476,"Daniel Lim Consulting Inc","645 E 26 St, Suite 4K",Brooklyn,"New York",11210,40.634698,-73.952026,1,rooftop,645,"E 26th St",Apt,4K,Brooklyn,NY,"Kings County",11210,US,"City of New York"
477,"MushLume Lighting","232 3rd Street",Brooklyn,"New York",11215,40.674878,-73.987885,1,rooftop,232,"3rd St",,,Brooklyn,NY,"Kings County",11215,US,"City of New York"
478,"Dantes Partners NYC LLC","55 Water Street",Brooklyn,"New York",11201,40.703389,-73.992347,1,rooftop,55,"Water St",,,Brooklyn,NY,"Kings County",11201,US,"City of New York"
479,"DARE Consulting, Inc.","289 Empire Blvd",Brooklyn,"New York",11225,40.663971,-73.952415,1,rooftop,289,"Empire Blvd",,,Brooklyn,NY,"Kings County",11225,US,"City of New York"
480,"Darryl Aiken","36 Troy Ave",Brooklyn,"New York",11213,40.678387,-73.935979,1,rooftop,36,"Troy Ave",,,Brooklyn,NY,"Kings County",11213,US,"City of New York"
481,"Dawn Drake Music LLC","Apartment 1R",Brooklyn,"New York",11238,40.680593,-73.963928,1,place,,,,,Brooklyn,NY,"Kings County",11238,US,"TIGER/Line® dataset from the US Census Bureau"
482,"DAYBREAK DATA SCIENCE LLC","205 N 9th Street",Brooklyn,"New York",11211,40.717974,-73.954778,1,rooftop,205,"N 9th St",,,Brooklyn,NY,"Kings County",11211,US,"City of New York"
483,"DBC Technologies Inc.","1090 East 36th Street",Brooklyn,"New York",11210,40.624116,-73.940714,1,rooftop,1090,"E 36th St",,,Brooklyn,NY,"Kings County",11210,US,"City of New York"
484,"DBG Media Publishers of Our Time Press, Inc.","257 Nostrand Avenue. Ste 506",Brooklyn,"New York",11205,40.690106,-73.951379,1,rooftop,257,"Nostrand Ave",Ste,506,Brooklyn,NY,"Kings County",11205,US,"City of New York"
485,"Decoder Media, LLC","486 Hancock St",Brooklyn,"New York",11233,40.684035,-73.935796,1,rooftop,486,"Hancock St",,,Brooklyn,NY,"Kings County",11233,US,"City of New York"
486,"Define USA, Inc.","589 Macon Street",Brooklyn,"New York",11233,40.683731,-73.927751,1,rooftop,589,"Macon St",,,Brooklyn,NY,"Kings County",11233,US,"City of New York"
487,"Dell's Maraschino Cherries Co.","175 Dikeman Street",Brooklyn,"New York",11231,40.678249,-74.015879,1,rooftop,175,"Dikeman St",,,Brooklyn,NY,"Kings County",11231,US,"City of New York"
488,"Deluxe Paper Direct, Inc.","211 Lombardy Street",Brooklyn,"New York",11222,40.72399,-73.932122,1,rooftop,211,"Lombardy St",,,Brooklyn,NY,"Kings County",11222,US,"City of New York"
489,"Dencitywork Architecture PLLC","55 Washington Street",Brooklyn,"New York",11201,40.702787,-73.989469,1,rooftop,55,"Washington St",,,Brooklyn,NY,"Kings County",11201,US,"City of New York"
490,"Dennell Custom Furniture, LLC","905 Stanley Ave",Brooklyn,"New York",11208,40.66287,-73.876031,1,rooftop,905,"Stanley Ave",,,Brooklyn,NY,"Kings County",11208,US,"City of New York"
491,"Den's Hot Dogs","2346 E 13th Street",Brooklyn,"New York",11229,40.592872,-73.957332,1,rooftop,2346,"E 13th St",,,Brooklyn,NY,"Kings County",11229,US,"City of New York"
492,"Der's Custom Boots & Shoes, Inc.","2455 McDonald Avenue",Brooklyn,"New York",11223,40.592093,-73.973715,1,rooftop,2455,"McDonald Ave",,,Brooklyn,NY,"Kings County",11223,US,"City of New York"
493,"Designs by D and J LLC","147 Prince Street",Brooklyn,"New York",11201,40.692808,-73.982442,1,rooftop,147,"Prince St",,,Brooklyn,NY,"Kings County",11201,US,"City of New York"
494,"Details NYC DMC & Events","372 Dekalb Avenue",Brooklyn,"New York",11205,40.689957,-73.962668,1,rooftop,372,"Dekalb Ave",,,Brooklyn,NY,"Kings County",11205,US,"City of New York"
495,"Devaykanan Rishudeo","1320 Fulton St",Brooklyn,"New York",11216,40.680174,-73.947832,1,rooftop,1320,"Fulton St",,,Brooklyn,NY,"Kings County",11216,US,"City of New York"
496,"DEZIRAE B MULTIMEDIA LLC","1440 Freeport Loop F2 009F",Brooklyn,"New York",11239,40.645669,-73.880734,1,rooftop,1440,"Freeport Loop",Apt,9F,Brooklyn,NY,"Kings County",11239,US,"City of New York"
497,Diafano,"21 India Street",Brooklyn,"New York",11222,40.731989,-73.961415,1,rooftop,21,"India St",,,Brooklyn,NY,"Kings County",11222,US,"City of New York"
498,"Diane Burgio Design, Inc.","68 35th Street",Brooklyn,"New York",11232,40.656735,-74.007099,1,rooftop,68,"35th St",,,Brooklyn,NY,"Kings County",11232,US,"City of New York"
499,"Diaz Electric of New York Inc.","220 36th Street",Brooklyn,"New York",11232,40.656627,-74.008432,1,rooftop,220,"36th St",,,Brooklyn,NY,"Kings County",11232,US,"City of New York"
500,"DIGITALPLUSTECH LLC","26 Court Street, Suite 409",Brooklyn,"New York",11215,40.693338,-73.990857,0.96,rooftop,26,"Court St",Ste,409,Brooklyn,NY,"Kings County",11242,US,"City of New York"
501,DEI,"161 21st Street",Brooklyn,"New York",11232,40.663099,-73.996118,1,rooftop,161,"21st St",,,Brooklyn,NY,"Kings County",11232,US,"City of New York"
502,"Dipak Contracting Co.","355 79th Street",Brooklyn,"New York",11209,40.628296,-74.0272,1,rooftop,355,"79th St",,,Brooklyn,NY,"Kings County",11209,US,"City of New York"
503,"Dirt Bee Gone LLC","2400 Nostrand Avenue",Brooklyn,"New York",11210,40.626145,-73.946933,1,rooftop,2400,"Nostrand Ave",,,Brooklyn,NY,"Kings County",11210,US,"City of New York"
504,"Discover Green Renewable Energy LLC","1120 Nostrand Avenue",Brooklyn,"New York",11225,40.660379,-73.950795,1,rooftop,1120,"Nostrand Ave",,,Brooklyn,NY,"Kings County",11225,US,"City of New York"
505,"Tha Pawsomes","649 Empire Boulevard #23",Brooklyn,"New York",11213,40.664093,-73.940581,1,rooftop,649,"Empire Blvd",Apt,23,Brooklyn,NY,"Kings County",11213,US,"City of New York"
506,"Diverse HVAC Mechanical LLC","1463 E 51st Street",Brooklyn,"New York",11234,40.624815,-73.926309,1,rooftop,1463,"E 51st St",,,Brooklyn,NY,"Kings County",11234,US,"City of New York"
507,"Divine Consulting Group Inc.","237 Lexington Avenue",Brooklyn,"New York",11216,40.687627,-73.952881,1,rooftop,237,"Lexington Ave",,,Brooklyn,NY,"Kings County",11216,US,"City of New York"
508,"DIVINE EXPRESS CATERINGS INC","992 Atlantic Ave",Brooklyn,"New York",11238,40.680237,-73.961096,1,rooftop,992,"Atlantic Ave",,,Brooklyn,NY,"Kings County",11238,US,"City of New York"
509,"Djeneba, Inc.","464 Nostrand Ave",Brooklyn,"New York",11216,40.682985,-73.950241,1,rooftop,464,"Nostrand Ave",,,Brooklyn,NY,"Kings County",11216,US,"City of New York"
510,"DKN Ready Mix LLC","362 Maspeth Avenue",Brooklyn,"New York",11211,40.718329,-73.928814,1,rooftop,362,"Maspeth Ave",,,Brooklyn,NY,"Kings County",11211,US,"City of New York"
511,"DL. Elite Services Corp.","323 Webster Avenue",Brooklyn,"New York",11230,40.63357,-73.969588,1,rooftop,323,"Webster Ave",,,Brooklyn,NY,"Kings County",11230,US,"City of New York"
512,"DMC Original Art LLC","539 Atlantic Ave",Brooklyn,"New York",11217,40.685077,-73.979637,1,rooftop,539,"Atlantic Ave",,,Brooklyn,NY,"Kings County",11217,US,"City of New York"
513,"Do Rite Mechanical Corporation","9714 3rd Avenue",Brooklyn,"New York",11209,40.615598,-74.034447,1,rooftop,9714,"3rd Ave",,,Brooklyn,NY,"Kings County",11209,US,"City of New York"
514,"DOF Media LLC","731 Grand Street",Brooklyn,"New York",11211,40.711795,-73.943562,1,rooftop,731,"Grand St",,,Brooklyn,NY,"Kings County",11211,US,"City of New York"
515,"Dog Basics NYC LLC","76 South 4th Street",Brooklyn,"New York",11249,40.712568,-73.965091,1,rooftop,76,"S 4th St",,,Brooklyn,NY,"Kings County",11249,US,"City of New York"
516,"Dollaride, Inc.","370 Jay Street, 7th Floor",Brooklyn,"New York",11201,40.692744,-73.987435,1,rooftop,370,"Jay St",Fl,7,Brooklyn,NY,"Kings County",11201,US,"City of New York"
517,"Dome Collective LLC","130 Prospect Place",Brooklyn,"New York",11217,40.678391,-73.972862,1,rooftop,130,"Prospect Pl",,,Brooklyn,NY,"Kings County",11217,US,"City of New York"
518,"Donia LLC","231 Norman Avenue",Brooklyn,"New York",11222,40.727696,-73.944459,1,rooftop,231,"Norman Ave",,,Brooklyn,NY,"Kings County",11222,US,"City of New York"
519,"Donya A. WIlliams, LLC","713 Classon Ave",Brooklyn,"New York",11238,40.676148,-73.959452,1,rooftop,713,"Classon Ave",,,Brooklyn,NY,"Kings County",11238,US,"City of New York"
520,"Dorothy Barnhouse","59 Park Place",Brooklyn,"New York",11217,40.679067,-73.976429,1,rooftop,59,"Park Pl",,,Brooklyn,NY,"Kings County",11217,US,"City of New York"
521,"Downie Services LLC","8316 Avenue J",Brooklyn,"New York",11236,40.635469,-73.908638,1,rooftop,8316,"Ave J",,,Brooklyn,NY,"Kings County",11236,US,"City of New York"
522,"New Solutions Staffing","1733 sheepsheadbay rd",Brooklyn,"New York",11235,40.585162,-73.951238,1,rooftop,1733,"Sheepshead Bay Rd",,,Brooklyn,NY,"Kings County",11235,US,"City of New York"
523,"Dr. Omolola Omishorre PT, P.C.","1138 Ocean Ave Apt# 6I",Brooklyn,"New York",11230,40.634552,-73.958339,1,rooftop,1138,"Ocean Ave",Apt,6I,Brooklyn,NY,"Kings County",11230,US,"City of New York"
524,"Drakes Carpentry & Woodwork, LLC","204 Montauk Avenue",Brooklyn,"New York",11208,40.674127,-73.878068,1,rooftop,204,"Montauk Ave",,,Brooklyn,NY,"Kings County",11208,US,"City of New York"
525,"Dream Nation Love","73 Devoe Street",Brooklyn,"New York",11211,40.713516,-73.948213,1,rooftop,73,"Devoe St",,,Brooklyn,NY,"Kings County",11211,US,"City of New York"
526,"Dream Overture LLC","1489 Fulton Street",Brooklyn,"New York",11216,40.680088,-73.941766,1,rooftop,1489,"Fulton St",,,Brooklyn,NY,"Kings County",11216,US,"City of New York"
527,"Dream Plan-It Events","699 Jerome Street",Brooklyn,"New York",11207,40.663405,-73.883234,1,rooftop,699,"Jerome St",,,Brooklyn,NY,"Kings County",11207,US,"City of New York"
528,"Dreaspostres LLC","54 Noll Street",Brooklyn,"New York",11206,40.700714,-73.933271,1,rooftop,54,"Noll St",,,Brooklyn,NY,"Kings County",11206,US,"City of New York"
529,"Driftless Landscape Architecture, PLLC","71 Greene Avenue",Brooklyn,"New York",11238,40.686339,-73.969947,1,rooftop,71,"Greene Ave",,,Brooklyn,NY,"Kings County",11238,US,"City of New York"
530,"Drop40 Productions","1930 Bedford Avenue",Brooklyn,"New York",11225,40.657906,-73.956772,1,rooftop,1930,"Bedford Ave",,,Brooklyn,NY,"Kings County",11225,US,"City of New York"
531,"Dru Gibson","652 Myrtle Avenue",Brooklyn,"New York",11205,40.694274,-73.957826,1,rooftop,652,"Myrtle Ave",,,Brooklyn,NY,"Kings County",11205,US,"City of New York"
532,Duggal,"63 Flushing Ave",Brooklyn,"New York",11205,40.698228,-73.975163,1,rooftop,63,"Flushing Ave",,,Brooklyn,NY,"Kings County",11205,US,"City of New York"
533,"Duo Promos Inc.","816 Myrtle Ave, STE B101",Brooklyn,"New York",11206,40.695213,-73.94962,1,rooftop,816,"Myrtle Ave",Ste,B101,Brooklyn,NY,"Kings County",11206,US,"City of New York"
534,"Duo Promos Inc.","816 Myrtle Ave, STE B101",Brooklyn,"New York",11206,40.695213,-73.94962,1,rooftop,816,"Myrtle Ave",Ste,B101,Brooklyn,NY,"Kings County",11206,US,"City of New York"
535,"Durukan Design Inc","45 Main Street",Brooklyn,"New York",11201,40.702769,-73.990584,1,rooftop,45,"Main St",,,Brooklyn,NY,"Kings County",11201,US,"City of New York"
536,"DW Service Inc","4023 Hubbard Place",Brooklyn,"New York",11210,40.625257,-73.936082,1,rooftop,4023,"Hubbard Pl",,,Brooklyn,NY,"Kings County",11210,US,"City of New York"
537,"Dwell Realty Services Inc.","230 Walworth Street",Brooklyn,"New York",11205,40.69179,-73.953855,1,rooftop,230,"Walworth St",,,Brooklyn,NY,"Kings County",11205,US,"City of New York"
538,"Dyamond J. Construction LLC","383 Hancock Street",Brooklyn,"New York",11216,40.68375,-73.940572,1,rooftop,383,"Hancock St",,,Brooklyn,NY,"Kings County",11216,US,"City of New York"
539,"Dynamic Construction Company","1149 East 34th Street",Brooklyn,"New York",11210,40.627703,-73.943062,1,rooftop,1149,"E 34th St",,,Brooklyn,NY,"Kings County",11210,US,"City of New York"
540,"Dynamic Electric System, Inc.","121 Greenpoint Avenue",Brooklyn,"New York",11222,40.730226,-73.955272,1,rooftop,121,"Greenpoint Ave",,,Brooklyn,NY,"Kings County",11222,US,"City of New York"
541,"Dynamic Therapeutic Cares SLP PLLC","495 Flatbush Avenue",Brooklyn,"New York",11225,40.662206,-73.961558,1,rooftop,495,"Flatbush Ave",,,Brooklyn,NY,"Kings County",11225,US,"City of New York"
542,"Dynamix Scaffold Group LLC","1355 Halsey St",Brooklyn,"New York",11237,40.693478,-73.907914,1,range_interpolation,1355,"Halsey St",,,Brooklyn,NY,"Kings County",11237,US,"TIGER/Line® dataset from the US Census Bureau"
