wkt_geom,field_1,vendor_nam,city,latitude,longitude,address_li,zip,ethnicity,certificat,naics_sect,naics_subs,largest_va,puma
Point (-73.95202600000000359 40.63469800000000021),24,"40 Six Four Architecture Design Studio, PLLC",Brooklyn,40.634698,-73.952026,645 East 26th Street,11210,Black,M/WBE,"Professional, Scientific, and Technical Services","Architectural, Engineering, and Related Services","$20,000.00 ",4015
Point (-73.9655130000000014 40.65241999999999933),34,"816 New York, LLC",Brooklyn,40.65242,-73.965513,25 Parade Place,11226,Non-Minority,WBE,"Professional, Scientific, and Technical Services","Management, Scientific, and Technical Consulting Services","$400,000.00 ",4015
Point (-73.95577900000000682 40.61950000000000216),75,Adkins Cleaning & Landscaping LLC,Brooklyn,40.6195,-73.955779,1740 Ocean Ave Suite L-1F,11230,Black,MBE,Construction,Other Specialty Trade Contractors,"$31,000.00 ",4015
Point (-73.9703140000000019 40.63236200000000053),81,"Advance Builders, Inc.",Brooklyn,40.632362,-73.970314,259 Newkirk Ave,11230,Asian-Indian,MBE,Construction,Residential Building Construction,"$2,519,644.00 ",4015
Point (-73.96728199999999731 40.63335599999999914),101,Al Rasheed Group of Construction Inc.,Brooklyn,40.633356,-73.967282,992 Coney Island Ave 2R,11230,Asian-Indian,MBE,Construction,Residential Building Construction,"$524,825.00 ",4015
Point (-73.95964100000000485 40.61192299999999733),127,Alzerina LLC,Brooklyn,40.611923,-73.959641,1535 East 14th Street Apt 5D,11230,Black,M/WBE,Retail Trade,"Jewelry, Luggage, and Leather Goods Retailers","$12,922.00 ",4015
Point (-73.95678300000000149 40.62225399999999809),142,"American Sign Language Learning Center, Inc.",Brooklyn,40.622254,-73.956783,1157 East 19th Street,11230,Non-Minority,WBE,Educational Services,Other Schools and Instruction,,4015
Point (-73.95775899999999581 40.63177999999999912),152,Ann Sophie LLC,Brooklyn,40.63178,-73.957759,"1250 Ocean Avenue, 5L",11230,Black,M/WBE,Retail Trade,Clothing and Clothing Accessories Retailers,$155.00 ,4015
Point (-73.96729399999999544 40.6347859999999983),169,"Arco General Contractor, Inc.",Brooklyn,40.634786,-73.967294,929 Coney Island Avenue,11230,Asian-Indian,MBE,Construction,"Foundation, Structure, and Building Exterior Contractors","$33,800.00 ",4015
Point (-73.97655000000000314 40.62862599999999702),171,ArkadaPlus Corp,Brooklyn,40.628626,-73.97655,1029 McDonald Avenue,11230,Non-Minority,WBE,Manufacturing,Lime and Gypsum Product Manufacturing,"$82,639.00 ",4015
Point (-73.96133199999999874 40.65300799999999981),177,Art Pop! LLC,Brooklyn,40.653008,-73.961332,403 Ocean Avenue,11226,Black,M/WBE,Construction,Building Finishing Contractors,"$20,000.00 ",4015
Point (-73.9654340000000019 40.64749400000000179),191,"Aspire-Achieve, L.L.C.",Brooklyn,40.647494,-73.965434,109 Marlborough Road,11226,Black,M/WBE,"Professional, Scientific, and Technical Services","Management, Scientific, and Technical Consulting Services","$52,000.00 ",4015
Point (-73.97257999999999356 40.63262399999999985),223,AZ1 Construction Inc,Brooklyn,40.632624,-73.97258,632 OCEAN PARKWAY B2,11230,Asian-Indian,MBE,Construction,Building Finishing Contractors,,4015
Point (-73.96101099999999917 40.64087399999999661),237,BK Music Learning,Brooklyn,40.640874,-73.961011,1801 Dorchester Rd,11226,Black,MBE,Educational Services,Elementary and Secondary Schools,"$6,200.00 ",4015
Point (-73.95577900000000682 40.61950000000000216),243,Baobab Architects P.C.,Brooklyn,40.6195,-73.955779,1740 Ocean ave,11230,Black,MBE,"Professional, Scientific, and Technical Services",Specialized Design Services,"$131,000.00 ",4015
Point (-73.97093800000000385 40.62935800000000341),251,"Baysan Architecture, P.C.",Brooklyn,40.629358,-73.970938,785 Ocean Pkwy,11230,Non-Minority,WBE,"Professional, Scientific, and Technical Services","Architectural, Engineering, and Related Services","$1,200.00 ",4015
Point (-73.95979499999999973 40.61740300000000303),259,Bed Bug 911 Corp.,Brooklyn,40.617403,-73.959795,1323 East 15th Street,11230,Non-Minority,WBE,Administrative and Support and Waste Management and Remediation Services,Services to Buildings and Dwellings,"$249,000.00 ",4015
Point (-73.96750500000000272 40.63825200000000137),271,Bespoken Communications LLC,Brooklyn,40.638252,-73.967505,415 Stratford Road,11218,Non-Minority,WBE,"Professional, Scientific, and Technical Services","Other Professional, Scientific, and Technical Services","$4,350.00 ",4015
Point (-73.96314800000000389 40.65341500000000252),312,Kingston Mon Group,Brooklyn,40.653415,-73.963148,80 Woodruff Avenue,11226,Black,M/WBE,"Professional, Scientific, and Technical Services","Accounting, Tax Preparation, Bookkeeping, and Payroll Services",,4015
Point (-73.96526400000000478 40.63163999999999731),336,Bridging Cultures Group Inc.,Brooklyn,40.63164,-73.965264,719 Westminster Rd,11230,Non-Minority,WBE,Other Services (except Public Administration),Social Advocacy Organizations,"$5,000,000.00 ",4015
Point (-73.95021300000000508 40.61243199999999831),338,Bright Smiles Childcare Corp.,Brooklyn,40.612432,-73.950213,2301 Kings Hwy,11229,Hispanic,M/WBE,Health Care and Social Assistance,Child Care Services,"$248,000.00 ",4015
Point (-73.96123400000000458 40.64399099999999976),349,Brooklyn Granola LLC,Brooklyn,40.643991,-73.961234,228 E. 19th Street,11226,Black,M/WBE,Manufacturing,Sugar and Confectionery Product Manufacturing,"$3,150.00 ",4015
Point (-73.95341799999999921 40.63450000000000273),372,Business Resource Solutions Group LLC,Brooklyn,40.6345,-73.953418,2796 Bedford Ave,11210,Black,MBE,Other Services (except Public Administration),Other Personal Services,"$6,367.12 ",4015
Point (-73.96199799999999414 40.64808299999999974),376,By Mnemosyne,Brooklyn,40.648083,-73.961998,50 E 19th St Apt F5,11226,Black,M/WBE,"Professional, Scientific, and Technical Services",Specialized Design Services,"$82,838.76 ",4015
Point (-73.94619400000000553 40.61537299999999817),380,C&C Y Business & Marketing Services LLC,Brooklyn,40.615373,-73.946194,2821 Kings Highway,11229,Black,M/WBE,"Professional, Scientific, and Technical Services","Other Professional, Scientific, and Technical Services",$0.00 ,4015
Point (-73.94782499999999459 40.63603299999999763),424,Chocolate Cream Beauty LLC,Brooklyn,40.636033,-73.947825,2025 Nostrand Ave,11210,Black,M/WBE,Retail Trade,Health and Personal Care Retailers,,4015
Point (-73.95743699999999876 40.6415799999999976),428,Christlie G. Consulting LLC,Brooklyn,40.64158,-73.957437,426 East 22nd Street,11226,Black,M/WBE,"Professional, Scientific, and Technical Services","Management, Scientific, and Technical Consulting Services","$16,328.00 ",4015
Point (-73.96697799999999745 40.64035599999999704),464,"Colonia Architecture & Engineering, PLLC",Brooklyn,40.640356,-73.966978,365 Westminster Road,11218,Hispanic,MBE,"Professional, Scientific, and Technical Services","Architectural, Engineering, and Related Services","$4,800.00 ",4015
Point (-73.95642700000000502 40.62693999999999761),486,Core Construction Group LLC,Brooklyn,40.62694,-73.956427,1439 Ocean Ave apt b9,11230,Asian-Indian,MBE,Construction,"Foundation, Structure, and Building Exterior Contractors","$9,000.00 ",4015
Point (-73.96881500000000642 40.63150799999999663),494,Creative Touch Construction Corp.,Brooklyn,40.631508,-73.968815,817 Foster Avenue,11230,Asian-Pacific,MBE,Construction,Residential Building Construction,"$47,000.00 ",4015
Point (-73.95202600000000359 40.63469800000000021),516,Daniel Lim Consulting Inc,Brooklyn,40.634698,-73.952026,"645 E 26 St, Suite 4K",11210,Asian-Pacific,MBE,"Professional, Scientific, and Technical Services","Other Professional, Scientific, and Technical Services","$159,500.00 ",4015
Point (-73.94693300000000136 40.62614500000000106),543,Dirt Bee Gone LLC,Brooklyn,40.626145,-73.946933,2400 Nostrand Avenue,11210,Black,MBE,Administrative and Support and Waste Management and Remediation Services,Services to Buildings and Dwellings,"$1,100.00 ",4015
Point (-73.96958800000000167 40.63356999999999886),551,DL. Elite Services Corp.,Brooklyn,40.63357,-73.969588,323 Webster Avenue,11230,Black,M/WBE,Administrative and Support and Waste Management and Remediation Services,Business Support Services,$45.00 ,4015
Point (-73.95833899999999517 40.63455199999999934),563,"Dr. Omolola Omishorre PT, P.C.",Brooklyn,40.634552,-73.958339,1138 Ocean Ave Apt# 6I,11230,Black,M/WBE,Health Care and Social Assistance,Offices of Other Health Practitioners,"$15,000.00 ",4015
Point (-73.94558600000000581 40.63425500000000312),596,Eastern Horizon Corporation,Brooklyn,40.634255,-73.945586,3201 Glenwood Road,11210,Black,MBE,Wholesale Trade,Wholesale Trade Agents and Brokers,"$100,000.00 ",4015
Point (-73.95567099999999527 40.64031700000000313),602,Eclore Floral,Brooklyn,40.640317,-73.955671,1222 Flatbush Ave,11226,Black,MBE,Retail Trade,Florists,$60.00 ,4015
Point (-73.96886000000000649 40.63308500000000123),614,EJ & S Contracting Corp.,Brooklyn,40.633085,-73.96886,901 Newkirk Avenue,11230,Black,M/WBE,Construction,Nonresidential Building Construction,"$495,000.00 ",4015
Point (-73.96943799999999669 40.64677400000000063),624,"Elizabeth Clemants, LLC",Brooklyn,40.646774,-73.969438,82 Stratford Road,11218,Non-Minority,WBE,"Professional, Scientific, and Technical Services","Other Professional, Scientific, and Technical Services","$12,000.00 ",4015
Point (-73.94876899999999864 40.62887800000000027),642,EMUNA CONSULTANTS LTD.,Brooklyn,40.628878,-73.948769,2814 Avenue I,11210,Non-Minority,WBE,"Professional, Scientific, and Technical Services","Other Professional, Scientific, and Technical Services","$440,000.00 ",4015
Point (-73.96357600000000332 40.61991499999999888),694,First Construction Group Inc.,Brooklyn,40.619915,-73.963576,1120 Avenue L,11230,Asian-Indian,MBE,Construction,Residential Building Construction,"$65,000.00 ",4015
Point (-73.96353499999999315 40.61716799999999949),731,"FTH Audiology and Speech Pathology, PC",Brooklyn,40.617168,-73.963535,1651 Coney Island Avenue,11230,Non-Minority,WBE,Health Care and Social Assistance,Offices of Other Health Practitioners,"$1,000,000.00 ",4015
Point (-73.96652299999999514 40.63213199999999858),734,Future Construction Corp,Brooklyn,40.632132,-73.966523,1047 Coney Island Ave,11230,Asian-Indian,MBE,Construction,"Foundation, Structure, and Building Exterior Contractors","$3,562,400.00 ",4015
Point (-73.9609970000000061 40.61874600000000157),756,Wow1Day Painting,Brooklyn,40.618746,-73.960997,1277 E 14th St,11230,Black,MBE,Construction,Building Finishing Contractors,,4015
Point (-73.96325799999999617 40.65157700000000318),759,GH TRAINING CENTER CORP.,Brooklyn,40.651577,-73.963258,1745 caton ave,11226,Hispanic,M/WBE,Educational Services,Technical and Trade Schools,,4015
Point (-73.96427300000000571 40.64910199999999918),761,Gifted And Talented Early Developers,Brooklyn,40.649102,-73.964273,1621 Church Ave,11226,Black,M/WBE,Educational Services,Other Schools and Instruction,"$200,000.00 ",4015
Point (-73.95073999999999614 40.63430999999999926),804,GrowHouse NYC,Brooklyn,40.63431,-73.95074,66 Kenilworth Place,11210,Black,M/WBE,Other Services (except Public Administration),Other Personal Services,"$5,000.00 ",4015
Point (-73.96157200000000387 40.64583600000000274),813,Hair Tonic,Brooklyn,40.645836,-73.961572,150 E. 19th Street,11226,Black,MBE,Health Care and Social Assistance,Individual and Family Services,"$30,000.00 ",4015
Point (-73.95588499999999499 40.62412199999999984),843,HF Construction Enterprises LLC,Brooklyn,40.624122,-73.955885,1553 ocean ave,11230,Asian-Indian,WBE,Construction,Building Finishing Contractors,,4015
Point (-73.962175000000002 40.61791500000000354),858,Home Clean Home Inc.,Brooklyn,40.617915,-73.962175,1215 Ave M,11230,Non-Minority,WBE,Administrative and Support and Waste Management and Remediation Services,Remediation and Other Waste Management Services,"$900,000.00 ",4015
Point (-73.96754300000000626 40.63964500000000157),860,The Farm on Adderley,Brooklyn,40.639645,-73.967543,1108 Cortelyou Road,11226,Asian-Pacific,MBE,Accommodation and Food Services,Restaurants and Other Eating Places,,4015
Point (-73.96886299999999892 40.6472920000000002),862,Child in Mind Training Group,Brooklyn,40.647292,-73.968863,1113 Church Ave,11218,Asian-Pacific,M/WBE,Educational Services,Educational Support Services,$300.00 ,4015
Point (-73.95963199999999915 40.62493500000000068),872,HPI International Inc,Brooklyn,40.624935,-73.959632,1040 East 17th Street,11230,Non-Minority,WBE,Wholesale Trade,Professional and Commercial Equipment and Supplies Merchant Wholesalers,"$4,500,000.00 ",4015
Point (-73.96856300000000317 40.64708900000000114),881,Green Power Associates,Brooklyn,40.647089,-73.968563,80 Westminster Road,11218,Black,MBE,Construction,Building Finishing Contractors,"$1,000,000.00 ",4015
Point (-73.94599399999999889 40.62312800000000124),883,"ILE Consulting Group, LLC",Brooklyn,40.623128,-73.945994,2525 Nostrand Ave.,11210,Black,MBE,Administrative and Support and Waste Management and Remediation Services,Business Support Services,"$20,000.00 ",4015
Point (-73.96685100000000546 40.63184300000000349),932,J Stone Builders Inc.,Brooklyn,40.631843,-73.966851,1058 Coney Island Ave,11230,Asian-Indian,MBE,Construction,Other Specialty Trade Contractors,"$25,700.00 ",4015
Point (-73.96204600000000084 40.61765499999999918),950,Jayour LLC,Brooklyn,40.617655,-73.962046,1222 Avenue M,11230,Hispanic,MBE,Wholesale Trade,"Apparel, Piece Goods, and Notions Merchant Wholesalers",,4015
Point (-73.9508119999999991 40.63289999999999935),955,Jengar Bookkeeping Solutions LLC,Brooklyn,40.6329,-73.950812,723 East 27th Street,11210,Black,M/WBE,"Professional, Scientific, and Technical Services","Accounting, Tax Preparation, Bookkeeping, and Payroll Services","$2,397.00 ",4015
Point (-73.94522200000000112 40.63428100000000143),981,Josh J Johnson LLC,Brooklyn,40.634281,-73.945222,3223 Glenwood Rd Apt A2,11210,Black,MBE,Educational Services,"Colleges, Universities, and Professional Schools","$2,500.00 ",4015
Point (-73.97025200000000211 40.62921000000000049),998,"JZ SNAPZ, LLC",Brooklyn,40.62921,-73.970252,623 Avenue H,11230,Asian-Pacific,MBE,"Professional, Scientific, and Technical Services","Other Professional, Scientific, and Technical Services",,4015
Point (-73.95577900000000682 40.61950000000000216),1002,"KACE World, LLC",Brooklyn,40.6195,-73.955779,1740 Ocean Avenue,11230,Black,M/WBE,"Professional, Scientific, and Technical Services",Legal Services,,4015
Point (-73.95433500000000038 40.63454300000000075),1065,"Kuumba Health, LLC",Brooklyn,40.634543,-73.954335,654 East 24th Street,11210,Black,M/WBE,Educational Services,Educational Support Services,"$40,000.00 ",4015
Point (-73.95433500000000038 40.63454300000000075),1066,"Kuumba Health, LLC",Brooklyn,40.634543,-73.954335,654 East 24th Street,11210,Black,M/WBE,Educational Services,Educational Support Services,"$40,000.00 ",4015
Point (-73.95433500000000038 40.63454300000000075),1067,"Kuumba Health, LLC",Brooklyn,40.634543,-73.954335,654 East 24th Street,11210,Black,M/WBE,Educational Services,Educational Support Services,"$40,000.00 ",4015
Point (-73.95433500000000038 40.63454300000000075),1068,"Kuumba Health, LLC",Brooklyn,40.634543,-73.954335,654 East 24th Street,11210,Black,M/WBE,Educational Services,Educational Support Services,"$40,000.00 ",4015
Point (-73.96385999999999683 40.64429499999999962),1070,Kyanite Partners,Brooklyn,40.644295,-73.96386,1600 Beverley Road,11226,Non-Minority,WBE,"Professional, Scientific, and Technical Services","Management, Scientific, and Technical Consulting Services","$60,000.00 ",4015
Point (-73.96398700000000304 40.62302199999999885),1072,KYO FIT USA LLC,Brooklyn,40.623022,-73.963987,1078 East 12th Street,11230,Hispanic,M/WBE,Other Services (except Public Administration),Personal Care Services,$105.00 ,4015
Point (-73.95740600000000597 40.61842299999999994),1125,"Life Care Services, Inc",Brooklyn,40.618423,-73.957406,1723 Avenue M,11230,Non-Minority,WBE,Health Care and Social Assistance,Home Health Care Services,"$97,831.50 ",4015
Point (-73.94960899999999526 40.63322800000000257),1158,"Love & Kindness Wellness Services, LLC",Brooklyn,40.633228,-73.949609,108 Kenilworth Place,11210,Black,M/WBE,Health Care and Social Assistance,Offices of Other Health Practitioners,"$8,000.00 ",4015
Point (-73.95812200000000303 40.63371500000000225),1160,Love Mother Eartha LLC,Brooklyn,40.633715,-73.958122,1170 Ocean Avenue,11230,Black,M/WBE,Retail Trade,Health and Personal Care Retailers,$0.00 ,4015
Point (-73.95577900000000682 40.61950000000000216),1166,Lumen Gallery Inc.,Brooklyn,40.6195,-73.955779,1740 Ocean Ave,11230,Non-Minority,WBE,"Professional, Scientific, and Technical Services",Specialized Design Services,"$80,000.00 ",4015
Point (-73.96424000000000376 40.62951300000000288),1211,Massage For Health And Fitness Products,Brooklyn,40.629513,-73.96424,800 East 13th Street Apt A,11230,Black,MBE,Health Care and Social Assistance,Offices of Other Health Practitioners,"$2,400.00 ",4015
Point (-73.95203700000000424 40.63433700000000215),1261,"Millianvision Entertainment, LLC",Brooklyn,40.634337,-73.952037,657 East 26th Street,11210,Black,MBE,Information,Motion Picture and Video Industries,$500.00 ,4015
Point (-73.96935200000000066 40.64791100000000057),1266,"Miron Linguistic Consulting, LLC",Brooklyn,40.647911,-73.969352,35 Stratford Road,11218,Hispanic,M/WBE,"Professional, Scientific, and Technical Services","Other Professional, Scientific, and Technical Services","$15,000.00 ",4015
Point (-73.96462999999999965 40.6520930000000007),1274,MoBiz LLC,Brooklyn,40.652093,-73.96463,15 Crooke Avenue,11226,Black,M/WBE,Educational Services,Business Schools and Computer and Management Training,"$1,200.00 ",4015
Point (-73.96151500000000567 40.63512099999999805),1277,Mohi Construction Inc.,Brooklyn,40.635121,-73.961515,628 East 17th Street,11226,Asian-Indian,MBE,Construction,Residential Building Construction,"$123,000.00 ",4015
Point (-73.96728199999999731 40.63335599999999914),1336,"New York Construction & Renovation, Inc.",Brooklyn,40.633356,-73.967282,992 Coney Island Avenue,11230,Asian-Pacific,MBE,Construction,Nonresidential Building Construction,,4015
Point (-73.95858800000000599 40.63192500000000251),1356,Noel Business Group LLC,Brooklyn,40.631925,-73.958588,769 E 19th St,11230,Black,M/WBE,Educational Services,Educational Support Services,,4015
Point (-73.95394299999999532 40.61385800000000046),1372,NYNEX Construction Inc.,Brooklyn,40.613858,-73.953943,1967 Ocean Avenue,11230,Non-Minority,WBE,Construction,Residential Building Construction,"$127,800.00 ",4015
Point (-73.96963700000000586 40.64698599999999828),1506,Prospect Gymnastics Inc.,Brooklyn,40.646986,-73.969637,1023 Church Avenue,11218,Non-Minority,WBE,Educational Services,Other Schools and Instruction,"$10,470.00 ",4015
Point (-73.96328499999999906 40.64706100000000077),1514,Purpose By Design Architects PLLC,Brooklyn,40.647061,-73.963285,1701 Albemarle Rd,11226,Non-Minority,WBE,"Professional, Scientific, and Technical Services","Architectural, Engineering, and Related Services","$618,750.00 ",4015
Point (-73.95646499999999435 40.61827799999999655),1515,Pyramid O&I Corp,Brooklyn,40.618278,-73.956465,1820 Avenue M,11230,Non-Minority,WBE,Construction,Building Finishing Contractors,"$14,253.00 ",4015
Point (-73.96201100000000395 40.65071199999999862),1560,Reiki Construction Corporation,Brooklyn,40.650712,-73.962011,20 Saint Pauls Court,11226,Black,MBE,Construction,Building Finishing Contractors,"$1,475,000.00 ",4015
Point (-73.9611629999999991 40.64519899999999808),1570,Renew'd LLC,Brooklyn,40.645199,-73.961163,165 E 19th Street,11226,Black,M/WBE,Health Care and Social Assistance,Other Ambulatory Health Care Services,"$36,000.00 ",4015
Point (-73.95666699999999594 40.63368799999999936),1572,Resume Rede LLC,Brooklyn,40.633688,-73.956667,817 East 21st Street,11210,Black,MBE,"Professional, Scientific, and Technical Services","Management, Scientific, and Technical Consulting Services","$60,000.00 ",4015
Point (-73.94927300000000514 40.62636100000000283),1584,RM Janitorial Corp.,Brooklyn,40.626361,-73.949273,2712 Avenue J,11210,Non-Minority,WBE,Retail Trade,Other Miscellaneous Store Retailers,"$40,280.00 ",4015
Point (-73.95723700000000633 40.61937300000000306),1587,ExhilaFit / Creative Mindz Yoga,Brooklyn,40.619373,-73.957237,1269 East 18th Street,11230,Non-Minority,WBE,Educational Services,Other Schools and Instruction,"$25,000.00 ",4015
Point (-73.95625400000000127 40.62394299999999703),1594,Rose Builders Construction Corp.,Brooklyn,40.623943,-73.956254,1562 Ocean Ave 5M,11230,Asian-Indian,MBE,Construction,"Foundation, Structure, and Building Exterior Contractors","$9,500.00 ",4015
Point (-73.96837700000000382 40.6385270000000034),1595,Rosebud Art Studio,Brooklyn,40.638527,-73.968377,"777, Coney Island Avenue, Apt.C2",11218,Asian-Indian,M/WBE,Educational Services,Other Schools and Instruction,,4015
Point (-73.96393100000000231 40.63425099999999901),1608,RZ United Construction Inc.,Brooklyn,40.634251,-73.963931,625 Rugby Road,11230,Asian-Indian,MBE,Construction,Building Finishing Contractors,,4015
Point (-73.95960999999999785 40.63009799999999672),1617,Sadiqa Trainer of Leaders LLC,Brooklyn,40.630098,-73.95961,1710 Avenue H,11230,Black,M/WBE,"Professional, Scientific, and Technical Services","Other Professional, Scientific, and Technical Services",$500.00 ,4015
Point (-73.95751799999999321 40.63820900000000336),1682,SILQ RRR INC,Brooklyn,40.638209,-73.957518,2102 newkirk Ave Apt 8,11226,Black,MBE,Construction,Residential Building Construction,"$6,700.00 ",4015
Point (-73.94541599999999448 40.63192599999999999),1701,"SMC CONSTRUCTION SERVICES , INC.",Brooklyn,40.631926,-73.945416,3215 Avenue H,11210,Black,M/WBE,"Professional, Scientific, and Technical Services","Accounting, Tax Preparation, Bookkeeping, and Payroll Services","$195,000.00 ",4015
Point (-73.96397899999999481 40.65213099999999713),1710,"Solo Scoop Creamery, LLC",Brooklyn,40.652131,-73.963979,36 Crooke Avenue,11226,Black,M/WBE,Manufacturing,Dairy Product Manufacturing,,4015
Point (-73.95285199999999293 40.63367699999999871),1725,"Sparks Electronics, Inc.",Brooklyn,40.633677,-73.952852,2835 Bedford Avenue,11210,Black,MBE,Administrative and Support and Waste Management and Remediation Services,Investigation and Security Services,"$22,448.00 ",4015
Point (-73.96285100000000057 40.61355199999999854),1770,Summit Home Health Care Inc.,Brooklyn,40.613552,-73.962851,1797 Coney Island Avenue,11230,Non-Minority,WBE,Health Care and Social Assistance,Home Health Care Services,"$8,037,936.00 ",4015
Point (-73.96421899999999994 40.64934099999999972),1785,Suzanne Hitchman,Brooklyn,40.649341,-73.964219,60 East 17th Street,11226,Non-Minority,WBE,Educational Services,Educational Support Services,,4015
Point (-73.96206200000000308 40.65463900000000308),1811,TERRA Visuals LLC,Brooklyn,40.654639,-73.962062,350 Ocean Ave,11226,Black,M/WBE,"Arts, Entertainment, and Recreation",Performing Arts Companies,"$42,000.00 ",4015
Point (-73.95001299999999844 40.63285299999999722),1825,The Curly Code,Brooklyn,40.632853,-73.950013,135 Amersfort Place,11210,Black,M/WBE,Educational Services,Educational Support Services,"$3,500.00 ",4015
Point (-73.97038799999999981 40.64546200000000198),1889,Trendline Construction Corp,Brooklyn,40.645462,-73.970388,507 Coney Island Avenue,11218,Asian-Indian,MBE,Construction,"Foundation, Structure, and Building Exterior Contractors","$55,500.00 ",4015
Point (-73.96546700000000385 40.63434600000000074),1925,Universal Construction & Carpentry Corp.,Brooklyn,40.634346,-73.965467,1212 Newkirk Avenue,11230,Asian-Indian,MBE,Construction,Residential Building Construction,"$26,500.00 ",4015
Point (-73.96595800000000054 40.62997699999999668),1938,USA Final Touch,Brooklyn,40.629977,-73.965958,1137 Coney Island Avenue,11230,Asian-Indian,MBE,Construction,Building Finishing Contractors,"$14,000.00 ",4015
Point (-73.95955399999999713 40.64618300000000062),1950,Park Slope Yoga Center,Brooklyn,40.646183,-73.959554,2025 Regent Place Apt. D8,11226,Black,M/WBE,Other Services (except Public Administration),Personal Care Services,"$2,930.00 ",4015
Point (-73.95638300000000243 40.62001200000000267),1993,WELLS ENGINEERING PLLC,Brooklyn,40.620012,-73.956383,"1251 EAST 19TH STREET, 7B",11230,Black,MBE,"Professional, Scientific, and Technical Services","Architectural, Engineering, and Related Services",,4015
Point (-73.96828200000000209 40.62988500000000158),2018,XPERT FIELD SERVICES LLC,Brooklyn,40.629885,-73.968282,778 E 9TH ST,11230,Asian-Indian,MBE,Construction,Residential Building Construction,"$24,750.00 ",4015
Point (-73.96481500000000153 40.62394499999999908),2025,YH Designs,Brooklyn,40.623945,-73.964815,1379 Coney Island Ave,11230,Hispanic,MBE,"Professional, Scientific, and Technical Services",Specialized Design Services,"$9,165.00 ",4015
Point (-73.95524899999999491 40.61711400000000083),2026,Yona Love Consulting Services Inc.,Brooklyn,40.617114,-73.955249,1928 Bay Ave. 3rd Floor,11230,Non-Minority,WBE,"Professional, Scientific, and Technical Services","Other Professional, Scientific, and Technical Services","$300,000.00 ",4015
Point (-73.95994899999999461 40.59831499999999949),46,AAA Cleaning Services Inc,Brooklyn,40.598315,-73.959949,1202 Ave U,11229,Non-Minority,WBE,Other Services (except Public Administration),Other Personal Services,"$2,450.00 ",4016
Point (-73.952699999999993 40.58855700000000155),70,"Adam Electrical Contracting, LLC",Brooklyn,40.588557,-73.9527,"2568 East 17th Street, Suite 101",11235,Asian-Pacific,MBE,Construction,Other Specialty Trade Contractors,"$42,000.00 ",4016
Point (-73.93262 40.59363900000000314),109,"ALL AROUND TRANS, INC.",Brooklyn,40.593639,-73.93262,2433 KNAPP STREET,11235,Non-Minority,WBE,Transportation and Warehousing,Taxi and Limousine Service,$45.00 ,4016
Point (-73.952699999999993 40.58855700000000155),110,All Boro Electric Corp.,Brooklyn,40.588557,-73.9527,2568 E 17th Street Ste 101,11235,Black,MBE,Construction,Building Equipment Contractors,"$41,728.04 ",4016
Point (-73.93727900000000375 40.6027559999999994),125,Altimate Environmental Solutions LLC,Brooklyn,40.602756,-73.937279,2017 Coyle Street,11229,Black,MBE,Administrative and Support and Waste Management and Remediation Services,Remediation and Other Waste Management Services,"$3,000.00 ",4016
Point (-73.952699999999993 40.58855700000000155),185,Asari Electrical Contracting LLC,Brooklyn,40.588557,-73.9527,2568 East 17th Street,11235,Asian-Indian,MBE,Construction,Other Specialty Trade Contractors,"$575,000.00 ",4016
Point (-73.952699999999993 40.58855700000000155),212,Aujla Electric Corp.,Brooklyn,40.588557,-73.9527,2568 East 17th Street,11235,Asian-Indian,MBE,Construction,Building Equipment Contractors,"$27,000.00 ",4016
Point (-73.93538300000000163 40.58727100000000121),337,Bright Beginnings In Brooklyn Inc.,Brooklyn,40.587271,-73.935383,2719 FORD ST,11235,Black,M/WBE,Educational Services,Educational Support Services,$814.00 ,4016
Point (-73.94786600000000476 40.59717799999999954),350,Brooklyn Kids Prep LLC,Brooklyn,40.597178,-73.947866,2215 E 23rd St,11229,Black,M/WBE,Educational Services,Elementary and Secondary Schools,,4016
Point (-73.94227800000000173 40.60270500000000027),393,"Captivate Designs, Inc.",Brooklyn,40.602705,-73.942278,3323 Nostrand Avenue,11229,Black,M/WBE,"Professional, Scientific, and Technical Services","Advertising, Public Relations, and Related Services","$10,000.00 ",4016
Point (-73.96381499999999676 40.60654999999999859),506,CYBERTHICS DIGITAL SOLUTIONS LLC,Brooklyn,40.60655,-73.963815,1752 E 9TH STREET,11223,Black,M/WBE,"Professional, Scientific, and Technical Services","Other Professional, Scientific, and Technical Services","$73,595.00 ",4016
Point (-73.95733199999999385 40.59287199999999984),531,Den's Hot Dogs,Brooklyn,40.592872,-73.957332,2346 E 13th Street,11229,Non-Minority,WBE,Manufacturing,Other Food Manufacturing,"$300,000.00 ",4016
Point (-73.95123800000000358 40.58516199999999685),562,New Solutions Staffing,Brooklyn,40.585162,-73.951238,1733 sheepsheadbay rd,11235,Non-Minority,WBE,Administrative and Support and Waste Management and Remediation Services,Employment Services,"$2,087,408.00 ",4016
Point (-73.95067099999999982 40.59332899999999711),685,"FBY Security Services, Inc.",Brooklyn,40.593329,-73.950671,2792 Ocean Avenue,11229,Black,MBE,"Professional, Scientific, and Technical Services","Other Professional, Scientific, and Technical Services","$1,000,000.00 ",4016
Point (-73.9498970000000071 40.59617399999999776),697,FirstInLine Media LLC,Brooklyn,40.596174,-73.949897,2308 East 21 Street,11229,Asian-Pacific,MBE,"Arts, Entertainment, and Recreation","Promoters of Performing Arts, Sports, and Similar Events",,4016
Point (-73.93911400000000356 40.58469699999999847),779,Drensys,Brooklyn,40.584697,-73.939114,4050 Nostrand Ave,11235,Non-Minority,WBE,"Professional, Scientific, and Technical Services","Other Professional, Scientific, and Technical Services","$28,635.00 ",4016
Point (-73.95277600000000007 40.58842200000000133),789,Green Apple Electrical Services LLC,Brooklyn,40.588422,-73.952776,2658 East 17th Street,11235,Hispanic,M/WBE,Construction,Building Equipment Contractors,"$20,000.00 ",4016
Point (-73.97197900000000459 40.6040660000000031),808,Hi-Tech Environmental & Renovation,Brooklyn,40.604066,-73.971979,480 Kings Highway,11223,Asian-Indian,MBE,Construction,Other Specialty Trade Contractors,"$2,000,000.00 ",4016
Point (-73.952699999999993 40.58855700000000155),934,J&H Electrical Contracting Inc,Brooklyn,40.588557,-73.9527,2568 East 17th Street,11235,Asian-Indian,MBE,Construction,Building Equipment Contractors,"$485,000.00 ",4016
Point (-73.94911500000000615 40.61215399999999676),963,Jewish Press,Brooklyn,40.612154,-73.949115,3692 Bedford Avenue,11229,Non-Minority,WBE,Information,"Newspaper, Periodical, Book, and Directory Publishers",$500.00 ,4016
Point (-73.952699999999993 40.58855700000000155),1128,Lightwire Electric Corp.,Brooklyn,40.588557,-73.9527,2568 East 17th Street,11235,Hispanic,MBE,Construction,Other Specialty Trade Contractors,"$14,985.00 ",4016
Point (-73.952699999999993 40.58855700000000155),1237,Merrick Technical Electric Corp,Brooklyn,40.588557,-73.9527,2568 East 17th St Suite 101,11235,Asian-Indian,MBE,Construction,Building Equipment Contractors,"$43,500.00 ",4016
Point (-73.96025400000000616 40.58871400000000307),1318,NDesign ny.inc,Brooklyn,40.588714,-73.960254,2785 Coney Island Avenue,11235,Non-Minority,WBE,Transportation and Warehousing,Couriers and Express Delivery Services,"$34,000.00 ",4016
Point (-73.93311400000000333 40.58667700000000167),1377,OK Construction Corp,Brooklyn,40.586677,-73.933114,3845 Shore Parkway,11235,Asian-Indian,MBE,Construction,"Foundation, Structure, and Building Exterior Contractors","$75,500.00 ",4016
Point (-73.9432560000000052 40.59617000000000075),1381,OM Construction Management,Brooklyn,40.59617,-73.943256,2280 East 28,11229,Non-Minority,WBE,"Professional, Scientific, and Technical Services","Management, Scientific, and Technical Consulting Services","$10,000.00 ",4016
Point (-73.95346899999999835 40.58630200000000343),1413,P.A. Environmental Corporation,Brooklyn,40.586302,-73.953469,1501 Voorhies Avenue,11235,Asian-Pacific,MBE,Administrative and Support and Waste Management and Remediation Services,Remediation and Other Waste Management Services,"$910,000.00 ",4016
Point (-73.96079299999999535 40.59847599999999801),1539,Rainbow Medical Supply,Brooklyn,40.598476,-73.960793,1107 Avenue U,11223,Non-Minority,WBE,Retail Trade,Health and Personal Care Retailers,"$240,000.00 ",4016
Point (-73.93884300000000565 40.58861699999999928),1582,Rizco Contracting Corporation,Brooklyn,40.588617,-73.938843,2642 Haring Street,11235,Asian-Indian,MBE,Construction,"Foundation, Structure, and Building Exterior Contractors","$120,995.00 ",4016
Point (-73.94935499999999706 40.58652800000000127),1598,"Royal Styles, Corp",Brooklyn,40.586528,-73.949355,3060 Ocean Ave,11235,Non-Minority,WBE,Manufacturing,Apparel Accessories and Other Apparel Manufacturing,,4016
Point (-73.96034899999999368 40.59076300000000259),1606,"RUSA Radio, Inc.",Brooklyn,40.590763,-73.960349,2699 Coney Island Avenue,11235,Non-Minority,WBE,Information,Radio and Television Broadcasting Stations,"$150,000.00 ",4016
Point (-73.93947599999999909 40.59928099999999773),1612,"S & M General Construction, Inc.",Brooklyn,40.599281,-73.939476,2157 Brown Street Apt. 1,11229,Asian-Indian,MBE,Construction,"Foundation, Structure, and Building Exterior Contractors","$27,500.00 ",4016
Point (-73.94347600000000398 40.60723800000000239),1654,Shadow Consultant Services LLC,Brooklyn,40.607238,-73.943476,2920 Avenue R. Suite# 281,11229,Black,M/WBE,Other Services (except Public Administration),Other Personal Services,"$135,000.00 ",4016
Point (-73.94309199999999294 40.58548600000000306),1664,Shazi Construction Co Inc,Brooklyn,40.585486,-73.943092,2758 East 26th street,11235,Asian-Indian,MBE,Construction,Nonresidential Building Construction,"$94,943.00 ",4016
Point (-73.96796899999999653 40.60243499999999983),1667,Shine Janitorial & Restoration Inc,Brooklyn,40.602435,-73.967969,483 Thantford Avenue,11212,Black,M/WBE,Administrative and Support and Waste Management and Remediation Services,Services to Buildings and Dwellings,"$15,785.00 ",4016
Point (-73.95360900000000015 40.60888800000000032),1683,Silverstone Construction Corp,Brooklyn,40.608888,-73.953609,1925 Quentin Road,11229,Asian-Indian,MBE,Construction,"Foundation, Structure, and Building Exterior Contractors","$11,000.00 ",4016
Point (-73.92659000000000447 40.59392400000000123),1693,Skyscraper Steel Corporation,Brooklyn,40.593924,-73.92659,2658 Gerritsen Avenue,11229,Native American,MBE,Construction,"Foundation, Structure, and Building Exterior Contractors","$417,000.00 ",4016
Point (-73.97093900000000133 40.59548399999999901),1731,Stacey Collazo,Brooklyn,40.595484,-73.970939,2171 West Street,11223,Hispanic,M/WBE,Health Care and Social Assistance,Home Health Care Services,"$10,870.00 ",4016
Point (-73.95019200000000126 40.60270700000000232),1852,The Urban Hearing Audiology Services PLLC,Brooklyn,40.602707,-73.950192,1994 East 22nd Street,11229,Non-Minority,WBE,Educational Services,Educational Support Services,"$1,000.00 ",4016
Point (-73.94807199999999625 40.58853100000000325),1855,Therapy Matters NY SLP PC,Brooklyn,40.588531,-73.948072,2102 Avenue Z,11235,Non-Minority,WBE,Health Care and Social Assistance,Offices of Other Health Practitioners,$118.00 ,4016
Point (-73.94055400000000589 40.60810000000000031),1887,"Transgender Equity Consulting, Inc.",Brooklyn,40.6081,-73.940554,1839 Stuart Street,11229,Hispanic,M/WBE,Other Services (except Public Administration),Social Advocacy Organizations,"$20,000.00 ",4016
Point (-73.94858000000000686 40.58916599999999875),1919,United Industries & Construction Corp.,Brooklyn,40.589166,-73.94858,2590 East 21st Street,11235,Hispanic,MBE,Construction,"Foundation, Structure, and Building Exterior Contractors","$9,600,000.00 ",4016
Point (-73.94858000000000686 40.58916599999999875),1920,United Industries & Construction Corp.,Brooklyn,40.589166,-73.94858,2590 East 21st Street,11235,Hispanic,MBE,Construction,"Foundation, Structure, and Building Exterior Contractors","$9,600,000.00 ",4016
Point (-73.94858000000000686 40.58916599999999875),1921,United Industries & Construction Corp.,Brooklyn,40.589166,-73.94858,2590 East 21st Street,11235,Hispanic,MBE,Construction,"Foundation, Structure, and Building Exterior Contractors","$9,600,000.00 ",4016
Point (-73.94858000000000686 40.58916599999999875),1922,United Industries & Construction Corp.,Brooklyn,40.589166,-73.94858,2590 East 21st Street,11235,Hispanic,MBE,Construction,"Foundation, Structure, and Building Exterior Contractors","$9,600,000.00 ",4016
Point (-73.94433399999999779 40.60998099999999766),1946,"Vanguard HVAC Technologies, Inc.",Brooklyn,40.609981,-73.944334,2907 Quentin Rd,11229,Non-Minority,WBE,Construction,Nonresidential Building Construction,"$1,445,305.00 ",4016
Point (-73.95522699999999361 40.58783600000000291),1962,indicator locks,Brooklyn,40.587836,-73.955227,2609 E14 St,11235,Non-Minority,WBE,Manufacturing,Hardware Manufacturing,"$103,820.00 ",4016
Point (-73.96293400000000418 40.68061999999999756),2,1 Call Building Maintenance Corp.,Brooklyn,40.68062,-73.962934,946 Atlantic Ave,11238,Black,MBE,Administrative and Support and Waste Management and Remediation Services,Services to Buildings and Dwellings,"$200,000.00 ",4006
Point (-73.95832799999999452 40.67466799999999694),29,593 Park Place Management Inc.,Brooklyn,40.674668,-73.958328,593 Park Place,11238,Black,M/WBE,Real Estate and Rental and Leasing,Lessors of Real Estate,"$2,550.00 ",4006
Point (-73.92352999999999952 40.67885199999999912),50,Aarons Law Office PLLC,Brooklyn,40.678852,-73.92353,1894 Fulton Street,11233,Black,M/WBE,"Professional, Scientific, and Technical Services",Legal Services,"$5,680.00 ",4006
Point (-73.95711900000000583 40.67780499999999932),52,Wild Stone,Brooklyn,40.677805,-73.957119,"1000 Dean Street, Suite 101",11238,Asian-Pacific,MBE,Construction,Residential Building Construction,,4006
Point (-73.94745000000000346 40.67100599999999844),84,"Advantage U. Educational Consulting Services, LLC",Brooklyn,40.671006,-73.94745,261 New York Avenue,11216,Hispanic,M/WBE,Educational Services,Educational Support Services,"$4,250.00 ",4006
Point (-73.94032400000000393 40.6777709999999999),103,AldoRay Industries,Brooklyn,40.677771,-73.940324,1542 Atlantic Ave,11213,Black,MBE,Wholesale Trade,Miscellaneous Durable Goods Merchant Wholesalers,$100.00 ,4006
Point (-73.95602900000000091 40.6756290000000007),131,Amelia Fowler,Brooklyn,40.675629,-73.956029,669 Franklin Avenue,11238,Black,M/WBE,"Arts, Entertainment, and Recreation","Independent Artists, Writers, and Performers",,4006
Point (-73.96031100000000436 40.67870099999999667),143,AMF Electrical Contracting Corp.,Brooklyn,40.678701,-73.960311,895 Dean Street,11238,Black,MBE,Construction,Building Equipment Contractors,"$550,000.00 ",4006
Point (-73.95888600000000679 40.6766539999999992),157,AoRa Development LLC,Brooklyn,40.676654,-73.958886,461 St. Marks Avenue,11238,Black,MBE,Construction,Residential Building Construction,"$201,000.00 ",4006
Point (-73.95888600000000679 40.6766539999999992),158,AoRa Development LLC,Brooklyn,40.676654,-73.958886,461 St. Marks Avenue,11238,Black,MBE,Construction,Residential Building Construction,"$201,000.00 ",4006
Point (-73.95888600000000679 40.6766539999999992),159,AoRa Development LLC,Brooklyn,40.676654,-73.958886,461 St. Marks Avenue,11238,Black,MBE,Construction,Residential Building Construction,"$201,000.00 ",4006
Point (-73.95888600000000679 40.6766539999999992),160,AoRa Development LLC,Brooklyn,40.676654,-73.958886,461 St. Marks Avenue,11238,Black,MBE,Construction,Residential Building Construction,"$201,000.00 ",4006
Point (-73.95035400000000436 40.673014000000002),176,Crown Hill Theatre,Brooklyn,40.673014,-73.950354,750 Nostrand Avenue,11216,Black,MBE,Information,Motion Picture and Video Industries,"$150,000.00 ",4006
Point (-73.95154300000000092 40.67514100000000354),216,Averent Wellness LLC,Brooklyn,40.675141,-73.951543,666 St Marks Avenue,11216,Black,MBE,"Professional, Scientific, and Technical Services","Other Professional, Scientific, and Technical Services",,4006
Point (-73.9228300000000047 40.66873499999999808),221,Ayleet Productions LLC,Brooklyn,40.668735,-73.92283,1371 Eastern Parkway,11233,Black,M/WBE,"Arts, Entertainment, and Recreation",Performing Arts Companies,$222.71 ,4006
Point (-73.93155899999999292 40.67602099999999865),239,Back of The Club Production,Brooklyn,40.676021,-73.931559,1705 Dean St.,11213,Black,M/WBE,"Arts, Entertainment, and Recreation","Independent Artists, Writers, and Performers",,4006
Point (-73.94815099999999575 40.67857500000000215),241,"Baker Design Build, LLC",Brooklyn,40.678575,-73.948151,1281 Atlantic Avenue,11216,Black,MBE,Construction,Residential Building Construction,"$728,339.00 ",4006
Point (-73.93403000000000702 40.67331399999999775),249,BPRT Construction of NY,Brooklyn,40.673314,-73.93403,1286 Prospect Place,11213,Asian-Pacific,MBE,Construction,Building Finishing Contractors,"$14,850,000.00 ",4006
Point (-73.97017099999999346 40.68053799999999853),263,Beltbar LLC,Brooklyn,40.680538,-73.970171,594 Dean Street,11238,Black,MBE,Manufacturing,Apparel Accessories and Other Apparel Manufacturing,,4006
Point (-73.9306749999999937 40.6719670000000022),307,Blue Steel Auto School Inc,Brooklyn,40.671967,-73.930675,197 Utica Ave,11213,Black,M/WBE,Educational Services,Other Schools and Instruction,,4006
Point (-73.95671099999999853 40.67619200000000035),326,"Brass City Media, Inc.",Brooklyn,40.676192,-73.956711,521 Saint Marks Avenue,11238,Black,M/WBE,Information,Motion Picture and Video Industries,"$58,000.00 ",4006
Point (-73.93342400000000225 40.6708629999999971),359,"Brothers Building Blocks, LLC",Brooklyn,40.670863,-73.933424,1351 Saint Johns Place Apt 3,11213,Black,MBE,Educational Services,Educational Support Services,"$3,350.00 ",4006
Point (-73.96942199999999445 40.67539000000000016),381,C. A. Roze Consulting LLC,Brooklyn,40.67539,-73.969422,34 Plaza Street East #908,11238,Black,M/WBE,"Professional, Scientific, and Technical Services","Management, Scientific, and Technical Consulting Services","$18,000.00 ",4006
Point (-73.933755000000005 40.67184100000000058),416,Charmed & 37th LLC,Brooklyn,40.671841,-73.933755,222 Schenectady Avenue,11213,Black,M/WBE,"Professional, Scientific, and Technical Services","Other Professional, Scientific, and Technical Services",$500.00 ,4006
Point (-73.94035800000000336 40.67543100000000322),456,Coaxum Connects LLC,Brooklyn,40.675431,-73.940358,"1340 Bergen Street, Apt 6",11213,Black,M/WBE,"Arts, Entertainment, and Recreation","Independent Artists, Writers, and Performers",$195.00 ,4006
Point (-73.93096199999999385 40.66683199999999943),465,"Colored Girls Hustle, LLC",Brooklyn,40.666832,-73.930962,1690 President Street,11213,Black,M/WBE,"Arts, Entertainment, and Recreation","Independent Artists, Writers, and Performers","$20,000.00 ",4006
Point (-73.97225500000000409 40.68143899999999746),472,Concentric Consulting Group LLC,Brooklyn,40.681439,-73.972255,535 Dean Street,11217,Black,MBE,"Professional, Scientific, and Technical Services","Other Professional, Scientific, and Technical Services","$256,000.00 ",4006
Point (-73.9556350000000009 40.67473900000000242),477,Connecting Forward LLC,Brooklyn,40.674739,-73.955635,636 Prospect Place,11216,Black,M/WBE,"Professional, Scientific, and Technical Services","Management, Scientific, and Technical Consulting Services","$26,600.00 ",4006
Point (-73.93014800000000264 40.67512500000000131),496,Creative Women Build LLC,Brooklyn,40.675125,-73.930148,1599 Bergen Street apt 2L,11213,Black,M/WBE,"Professional, Scientific, and Technical Services","Management, Scientific, and Technical Consulting Services","$13,500.00 ",4006
Point (-73.93597900000000323 40.67838700000000074),520,Darryl Aiken,Brooklyn,40.678387,-73.935979,36 Troy Ave,11213,Black,MBE,Educational Services,Other Schools and Instruction,"$10,000.00 ",4006
Point (-73.96392799999999568 40.68059300000000178),521,Dawn Drake Music LLC,Brooklyn,40.680593,-73.963928,Apartment 1R,11238,Non-Minority,WBE,"Arts, Entertainment, and Recreation","Independent Artists, Writers, and Performers","$3,000.00 ",4006
Point (-73.94783200000000534 40.68017400000000094),535,Devaykanan Rishudeo,Brooklyn,40.680174,-73.947832,1320 Fulton St,11216,Asian-Indian,MBE,Real Estate and Rental and Leasing,Activities Related to Real Estate,"$5,941.00 ",4006
Point (-73.96109599999999773 40.6802369999999982),548,DIVINE EXPRESS CATERINGS INC,Brooklyn,40.680237,-73.961096,992 Atlantic Ave,11238,Black,M/WBE,Accommodation and Food Services,Restaurants and Other Eating Places,"$7,000.00 ",4006
Point (-73.97286200000000633 40.67839099999999775),557,Dome Collective LLC,Brooklyn,40.678391,-73.972862,130 Prospect Place,11217,Asian-Pacific,M/WBE,"Professional, Scientific, and Technical Services",Specialized Design Services,"$62,300.00 ",4006
Point (-73.95945199999999886 40.67614799999999775),559,"Donya A. WIlliams, LLC",Brooklyn,40.676148,-73.959452,713 Classon Ave,11238,Black,M/WBE,"Professional, Scientific, and Technical Services","Other Professional, Scientific, and Technical Services","$50,000.00 ",4006
Point (-73.92902499999999577 40.66610800000000125),586,E.M. Bishop Holdings LLC,Brooklyn,40.666108,-73.929025,"1717 Carroll Street, #36",11213,Black,M/WBE,"Professional, Scientific, and Technical Services","Management, Scientific, and Technical Consulting Services","$96,000.00 ",4006
Point (-73.92842100000000016 40.66938100000000134),599,"Ebentive, Inc.",Brooklyn,40.669381,-73.928421,270 Rochester Avenue,11213,Black,M/WBE,Educational Services,Educational Support Services,"$10,236.00 ",4006
Point (-73.96203400000000272 40.67831199999999825),603,ECom Technologies Corp.,Brooklyn,40.678312,-73.962034,569 Grand Ave,11238,Black,MBE,Administrative and Support and Waste Management and Remediation Services,Investigation and Security Services,"$19,600,000.00 ",4006
Point (-73.96450600000000009 40.67594600000000327),629,"Embodied Workplace, LLC",Brooklyn,40.675946,-73.964506,403 Park Place #2,11238,Asian-Pacific,M/WBE,"Professional, Scientific, and Technical Services","Management, Scientific, and Technical Consulting Services","$2,500.00 ",4006
Point (-73.9314679999999953 40.68229000000000184),632,EmergeSoul,Brooklyn,40.68229,-73.931468,380 Macdonough Street,11233,Black,M/WBE,Other Services (except Public Administration),Other Personal Services,"$10,000.00 ",4006
Point (-73.93862300000000687 40.67587100000000078),643,Enchanted By Karmisha,Brooklyn,40.675871,-73.938623,141 Albany Ave,11213,Black,M/WBE,Administrative and Support and Waste Management and Remediation Services,Other Support Services,"$5,000.00 ",4006
Point (-73.96124299999999607 40.67714999999999748),647,ENJOYTech USA Corporation,Brooklyn,40.67715,-73.961243,403 Saint Marks Ave Suite C,11238,Black,MBE,Educational Services,Educational Support Services,"$28,000.00 ",4006
Point (-73.97017099999999346 40.68053799999999853),649,"Enoem, Inc.",Brooklyn,40.680538,-73.970171,594 Dean Street,11238,Black,MBE,"Professional, Scientific, and Technical Services","Other Professional, Scientific, and Technical Services","$130,000.00 ",4006
Point (-73.93024300000000437 40.68119500000000244),653,"Envisioned Events by Suzette, LLC",Brooklyn,40.681195,-73.930243,173 Bainbridge Street,11233,Black,M/WBE,"Professional, Scientific, and Technical Services","Other Professional, Scientific, and Technical Services",,4006
Point (-73.96430999999999756 40.6797510000000031),659,Erum Nadeem,Brooklyn,40.679751,-73.96431,630 Washington Avenue,11238,Asian-Indian,M/WBE,"Professional, Scientific, and Technical Services",Scientific Research and Development Services,"$9,088.32 ",4006
Point (-73.92859799999999382 40.68189799999999678),702,"Flateau Realty, Corp.",Brooklyn,40.681898,-73.928598,368A Decatur St.,11233,Black,MBE,Real Estate and Rental and Leasing,Offices of Real Estate Agents and Brokers,"$76,000.00 ",4006
Point (-73.94648499999999558 40.68005699999999791),711,I WILL GRADUATE Youth Development Program,Brooklyn,40.680057,-73.946485,1360 Fulton Street Suite 200A,11216,Black,M/WBE,Educational Services,Educational Support Services,"$20,000,000.00 ",4006
Point (-73.96381300000000181 40.67553399999999897),732,Fully Funded x 40 Weeks LLC,Brooklyn,40.675534,-73.963813,428 Park  Pl,11238,Non-Minority,WBE,Other Services (except Public Administration),Other Personal Services,,4006
Point (-73.96318399999999826 40.67990600000000256),758,GH Construction NY Inc,Brooklyn,40.679906,-73.963184,918 Pacific Street,11238,Asian-Indian,MBE,Construction,Residential Building Construction,"$1,347,806.00 ",4006
Point (-73.92435899999999549 40.67277399999999687),768,Global Girls Squad LLC,Brooklyn,40.672774,-73.924359,1570 Prospect Place,11233,Black,M/WBE,Educational Services,Educational Support Services,"$1,500.00 ",4006
Point (-73.96399900000000116 40.67985999999999791),795,Green Renovation NY Inc.,Brooklyn,40.67986,-73.963999,593 Washington Avenue,11238,Asian-Indian,MBE,Construction,"Foundation, Structure, and Building Exterior Contractors","$1,210,000.00 ",4006
Point (-73.93328700000000708 40.6705609999999993),797,Greene & Greene Uniforms LLC,Brooklyn,40.670561,-73.933287,1358 St. Johns Place,11213,Black,M/WBE,Retail Trade,Clothing and Clothing Accessories Retailers,$150.00 ,4006
Point (-73.97286200000000633 40.67839099999999775),809,Gyrate Media LLC,Brooklyn,40.678391,-73.972862,130 Prospect Place 2,11217,Non-Minority,WBE,"Professional, Scientific, and Technical Services","Management, Scientific, and Technical Consulting Services","$397,200.00 ",4006
Point (-73.96336800000000267 40.67854299999999768),819,Happy Little Bear Cub LLC,Brooklyn,40.678543,-73.963368,755 Bergen Street,11238,Asian-Pacific,M/WBE,Retail Trade,Other Miscellaneous Retailers,"$1,372.80 ",4006
Point (-73.94983600000000479 40.6753750000000025),830,Bleu Fin Bar & Grill,Brooklyn,40.675375,-73.949836,633 Nostrand Avenue,11216,Black,M/WBE,Accommodation and Food Services,Restaurants and Other Eating Places,"$6,000.00 ",4006
Point (-73.9537339999999972 40.67506000000000199),836,Helene Elizabeth Wellness Center LLC,Brooklyn,40.67506,-73.953734,1408 Bedford Avenue,11216,Black,M/WBE,"Professional, Scientific, and Technical Services","Management, Scientific, and Technical Consulting Services","$16,000.00 ",4006
Point (-73.92842199999999764 40.67633500000000168),837,Henge Development LLC,Brooklyn,40.676335,-73.928422,1794 Pacific Street,11233,Black,M/WBE,Real Estate and Rental and Leasing,Activities Related to Real Estate,$0.00 ,4006
Point (-73.96227199999999868 40.67848000000000042),845,Hibiscus Flowers Inc.,Brooklyn,40.67848,-73.962272,568 Grand Avenue,11238,Black,M/WBE,Retail Trade,Florists,"$98,234.00 ",4006
Point (-73.96379100000000051 40.68080199999999991),864,Horizon Construction Inc.,Brooklyn,40.680802,-73.963791,922 Atlantic Avenue,11238,Asian-Indian,MBE,Construction,Residential Building Construction,"$145,000,000.00 ",4006
Point (-73.95711900000000583 40.67780499999999932),886,ImageThink LLC,Brooklyn,40.677805,-73.957119,1000 Dean St,11238,Non-Minority,WBE,"Professional, Scientific, and Technical Services","Other Professional, Scientific, and Technical Services","$25,000.00 ",4006
Point (-73.97017099999999346 40.68053799999999853),924,"Iuncta, Inc.",Brooklyn,40.680538,-73.970171,594 Dean Street,11238,Black,MBE,Information,Software Publishers,,4006
Point (-73.96115700000000004 40.67525200000000041),957,"Jennifer Dennis Objects Conservation, LLC",Brooklyn,40.675252,-73.961157,501 Park Place,11238,Non-Minority,WBE,"Arts, Entertainment, and Recreation","Independent Artists, Writers, and Performers","$65,200.00 ",4006
Point (-73.96069799999999361 40.67610100000000273),969,JMH Consultants LLC,Brooklyn,40.676101,-73.960698,471 Prospect Place,11238,Black,MBE,Health Care and Social Assistance,Individual and Family Services,"$40,000.00 ",4006
Point (-73.92723399999999856 40.68277499999999947),982,"JourneyOne, LLC",Brooklyn,40.682775,-73.927234,480A MacDonough Street,11233,Black,MBE,"Professional, Scientific, and Technical Services","Management, Scientific, and Technical Consulting Services","$226,200.00 ",4006
Point (-73.95139799999999752 40.67542799999999659),992,Just Equity for Health,Brooklyn,40.675428,-73.951398,655 St Marks Ave.,11216,Black,M/WBE,"Professional, Scientific, and Technical Services","Other Professional, Scientific, and Technical Services","$37,500.00 ",4006
Point (-73.96032099999999332 40.67162400000000133),1012,SchoolOpsNYC,Brooklyn,40.671624,-73.960321,255 Eastern Parkway,11238,Black,M/WBE,"Professional, Scientific, and Technical Services","Other Professional, Scientific, and Technical Services","$20,000.00 ",4006
Point (-73.94173499999999422 40.67583100000000229),1018,"Kay's Clean Break Service, LLC",Brooklyn,40.675831,-73.941735,116 Kingston Avenue,11213,Black,M/WBE,Administrative and Support and Waste Management and Remediation Services,Services to Buildings and Dwellings,$350.00 ,4006
Point (-73.95329200000000469 40.67125200000000262),1019,KC Dearson Inc.,Brooklyn,40.671252,-73.953292,154 Rogers Ave,11216,Black,M/WBE,Educational Services,Other Schools and Instruction,"$54,500.00 ",4006
Point (-73.96979500000000485 40.67893099999999862),1062,KPS Strategies LLC,Brooklyn,40.678931,-73.969795,187 St Marks Ave #4L,11238,Asian-Indian,MBE,"Professional, Scientific, and Technical Services","Management, Scientific, and Technical Consulting Services","$190,000.00 ",4006
Point (-73.95560100000000148 40.67595599999999934),1071,Kyle Lui Photography LLC,Brooklyn,40.675956,-73.955601,545 St Marks Ave,11216,Asian-Pacific,MBE,"Professional, Scientific, and Technical Services","Other Professional, Scientific, and Technical Services",,4006
Point (-73.94871000000000549 40.67166199999999776),1076,L.W.H LDS LLC,Brooklyn,40.671662,-73.94871,891 Saint Johns Place,11216,Black,M/WBE,Educational Services,Educational Support Services,"$5,000.00 ",4006
Point (-73.95088599999999701 40.67600099999999941),1095,Le Loup Studios LLC,Brooklyn,40.676001,-73.950886,1066 Bergen St 2c,11216,Black,MBE,"Professional, Scientific, and Technical Services",Specialized Design Services,,4006
Point (-73.94931800000000521 40.6750419999999977),1137,Lishawns Consulting,Brooklyn,40.675042,-73.949318,720 St. Marks Avenue,11216,Black,M/WBE,Accommodation and Food Services,Special Food Services,"$43,000.00 ",4006
Point (-73.96590399999999477 40.67353200000000157),1181,Madeline Bank,Brooklyn,40.673532,-73.965904,311 Lincoln Place,11238,Non-Minority,WBE,Other Services (except Public Administration),Grantmaking and Giving Services,"$1,250.00 ",4006
Point (-73.96305200000000468 40.67205100000000328),1189,"Majestic Capital Funding, LLC",Brooklyn,40.672051,-73.963052,175 Eastern Parkway,11238,Black,MBE,Real Estate and Rental and Leasing,Activities Related to Real Estate,"$4,800.00 ",4006
Point (-73.96993200000000002 40.67989399999999733),1197,MaMassage® Brooklyn,Brooklyn,40.679894,-73.969932,603 Bergen St,11238,Non-Minority,WBE,Health Care and Social Assistance,Offices of Other Health Practitioners,$140.00 ,4006
Point (-73.9289760000000058 40.67557500000000203),1201,LILOclean,Brooklyn,40.675575,-73.928976,1776 Dean St,11233,Black,M/WBE,Wholesale Trade,Miscellaneous Durable Goods Merchant Wholesalers,"$9,000,000.00 ",4006
Point (-73.94925299999999879 40.6786120000000011),1203,MARLEUT LLC,Brooklyn,40.678612,-73.949253,1247 Atlantic Ave.,11216,Hispanic,MBE,"Professional, Scientific, and Technical Services",Computer Systems Design and Related Services,"$9,400.00 ",4006
Point (-73.95848300000000108 40.67182999999999993),1207,Marvin Andrew's LLC,Brooklyn,40.67183,-73.958483,541 Lincoln Place,11238,Black,MBE,"Professional, Scientific, and Technical Services","Management, Scientific, and Technical Consulting Services","$200,000.00 ",4006
Point (-73.96197999999999695 40.67350100000000168),1219,Mayflower Energy Engineering PLLC,Brooklyn,40.673501,-73.96198,485 St Johns Place,11238,Hispanic,MBE,"Professional, Scientific, and Technical Services","Management, Scientific, and Technical Consulting Services","$6,500.00 ",4006
Point (-73.93202300000000093 40.68206299999999942),1247,Michael Ivanhoe McCaw Architect P.C.,Brooklyn,40.682063,-73.932023,364 Stuyvesant Avenue,11233,Black,MBE,"Professional, Scientific, and Technical Services","Architectural, Engineering, and Related Services","$978,000.00 ",4006
Point (-73.92707799999999452 40.67471400000000159),1280,"Monae Artistry, LLC",Brooklyn,40.674714,-73.927078,1672 Bergen st,11213,Black,M/WBE,Retail Trade,Health and Personal Care Retailers,"$3,961.00 ",4006
Point (-73.95265000000000555 40.67035599999999818),1290,UHope Consulting,Brooklyn,40.670356,-73.95265,465 Eastern Parkway,11216,Black,M/WBE,"Professional, Scientific, and Technical Services","Management, Scientific, and Technical Consulting Services","$56,000.00 ",4006
Point (-73.94951199999999858 40.67886699999999678),1317,Nature's Finest Security LLC,Brooklyn,40.678867,-73.949512,543 Nostrand Ave.,11216,Black,M/WBE,Administrative and Support and Waste Management and Remediation Services,Investigation and Security Services,"$750,000.00 ",4006
Point (-73.97082100000000082 40.68119200000000291),1323,New Ambitions LLC,Brooklyn,40.681192,-73.970821,535 Carlton Avenue #324,11238,Black,M/WBE,"Arts, Entertainment, and Recreation","Independent Artists, Writers, and Performers","$43,350.00 ",4006
Point (-73.95473200000000702 40.67549100000000095),1350,Nicole DeFino LLC,Brooklyn,40.675491,-73.954732,590 St. Marks Avenue,11216,Non-Minority,WBE,Educational Services,Elementary and Secondary Schools,,4006
Point (-73.94343499999999381 40.67290299999999803),1352,Nine Muses Travel,Brooklyn,40.672903,-73.943435,1030 Park Place,11213,Non-Minority,WBE,Other Services (except Public Administration),Other Personal Services,"$5,811.00 ",4006
Point (-73.94542199999999355 40.67508000000000123),1357,Non-Corporate Girls,Brooklyn,40.67508,-73.945422,805 St Marks Ave Apt C3B,11213,Hispanic,M/WBE,"Arts, Entertainment, and Recreation","Independent Artists, Writers, and Performers",$268.00 ,4006
Point (-73.93124000000000251 40.66533900000000301),1375,Odeon Security LLC,Brooklyn,40.665339,-73.93124,377 Utica Avenue,11213,Black,MBE,Administrative and Support and Waste Management and Remediation Services,Investigation and Security Services,"$28,705.00 ",4006
Point (-73.93156000000000461 40.6692159999999987),1385,On Top Renovation Inc.,Brooklyn,40.669216,-73.93156,1123 Eastern Parkway,11213,Black,MBE,Construction,Residential Building Construction,"$1,427,774.00 ",4006
Point (-73.96786899999999321 40.6743590000000026),1392,Onepiecewear,Brooklyn,40.674359,-73.967869,295 St. John's Place,11238,Black,M/WBE,Retail Trade,Other Miscellaneous Store Retailers,"$2,340.00 ",4006
Point (-73.96279800000000648 40.6805919999999972),1412,Ozawa Violin LLC,Brooklyn,40.680592,-73.962798,950 Atlantic Ave,11238,Asian-Pacific,M/WBE,Educational Services,Other Schools and Instruction,"$1,200.00 ",4006
Point (-73.95638599999999485 40.67586899999999872),1435,PEN110 Studio,Brooklyn,40.675869,-73.956386,550 Saint Marks Ave,11238,Asian-Pacific,M/WBE,"Professional, Scientific, and Technical Services",Specialized Design Services,"$177,096.00 ",4006
Point (-73.92991999999999564 40.68123099999999681),1442,Persistence of Vision Film Corp.,Brooklyn,40.681231,-73.92992,183 Bainbridge Street,11233,Non-Minority,WBE,Information,Motion Picture and Video Industries,"$140,000.00 ",4006
Point (-73.93374500000000182 40.67194899999999791),1447,Phillips Carpenters & Cleaning Services Inc,Brooklyn,40.671949,-73.933745,218 Schenectady Avenue,11213,Black,MBE,Construction,Building Finishing Contractors,"$300,000.00 ",4006
Point (-73.95570999999999628 40.67412499999999653),1501,Product Mindset,Brooklyn,40.674125,-73.95571,665 Park Place,11216,Asian-Indian,M/WBE,Finance and Insurance,"Agencies, Brokerages, and Other Insurance Related Activities","$14,400.00 ",4006
Point (-73.94732700000000136 40.67580300000000193),1502,Progress Playbook LLC,Brooklyn,40.675803,-73.947327,124 New York Avenue,11216,Black,MBE,Educational Services,Educational Support Services,"$47,500.00 ",4006
Point (-73.93768000000000029 40.66954499999999939),1505,Proquality Improvement LLC,Brooklyn,40.669545,-73.93768,919 Eastern Parkway #3C,11213,Black,MBE,Construction,Residential Building Construction,"$2,800.00 ",4006
Point (-73.93071100000000229 40.67468099999999964),1511,Pure Perfection Hair Salon,Brooklyn,40.674681,-73.930711,124 Utica Ave,11216,Black,M/WBE,Other Services (except Public Administration),Other Personal Services,$160.00 ,4006
Point (-73.96075700000000097 40.67962299999999942),1520,Qualified Construction Inc.,Brooklyn,40.679623,-73.960757,997 Pacific St,11238,Asian-Indian,MBE,Construction,"Foundation, Structure, and Building Exterior Contractors","$2,000,000.00 ",4006
Point (-73.95302200000000425 40.67101799999999656),1554,Redd Electrical Services Inc.,Brooklyn,40.671018,-73.953022,185 Rogers Avenue,11216,Black,MBE,Construction,Building Equipment Contractors,"$773,247.00 ",4006
Point (-73.97082100000000082 40.68119200000000291),1568,Renee Kimberly Smith,Brooklyn,40.681192,-73.970821,535 Carlton Avenue,11238,Black,M/WBE,"Professional, Scientific, and Technical Services","Management, Scientific, and Technical Consulting Services","$26,000.00 ",4006
Point (-73.96942199999999445 40.67539000000000016),1575,"RHYMAN CONSULTING, LLC",Brooklyn,40.67539,-73.969422,34 Plaza Street E,11238,Non-Minority,WBE,Real Estate and Rental and Leasing,Activities Related to Real Estate,"$69,500.00 ",4006
Point (-73.95021500000000003 40.67442799999999892),1629,Savvy Bistro and Bar Inc.,Brooklyn,40.674428,-73.950215,710 Nostrand Ave,11216,Black,MBE,Accommodation and Food Services,Restaurants and Other Eating Places,"$65,000.00 ",4006
Point (-73.96592300000000364 40.67907900000000154),1630,Scalegal Advisory LLC,Brooklyn,40.679079,-73.965923,701 Bergen St,11238,Asian-Pacific,MBE,"Professional, Scientific, and Technical Services",Computer Systems Design and Related Services,"$50,000.00 ",4006
Point (-73.94107999999999947 40.67905300000000324),1637,Security Intercoms Protection LLC,Brooklyn,40.679053,-73.94108,368 Herkimer Street,11213,Black,MBE,Information,Wired and Wireless Telecommunications (except Satellite),"$250,000.00 ",4006
Point (-73.93604000000000553 40.66945100000000224),1642,Seleen T Saleh LLC,Brooklyn,40.669451,-73.93604,961 Eastern Parkway,11213,Non-Minority,WBE,"Professional, Scientific, and Technical Services","Other Professional, Scientific, and Technical Services",$600.00 ,4006
Point (-73.94758699999999862 40.67494800000000055),1652,Sew Graphic Inc.,Brooklyn,40.674948,-73.947587,770 St. Marks Avenue,11216,Black,MBE,"Professional, Scientific, and Technical Services",Specialized Design Services,"$5,000.00 ",4006
Point (-73.95165400000000488 40.67450699999999841),1735,Stanley Lewis Plumbing & Heating Corp.,Brooklyn,40.674507,-73.951654,749 Prospect Place,11216,Black,MBE,Construction,Building Equipment Contractors,"$79,500.00 ",4006
Point (-73.95626699999999687 40.67232400000000325),1748,"Strada Ventures, LLC",Brooklyn,40.672324,-73.956267,661 St. John's Place,11216,Non-Minority,WBE,Real Estate and Rental and Leasing,Activities Related to Real Estate,"$37,860.00 ",4006
Point (-73.95626699999999687 40.67232400000000325),1749,"Strada Ventures, LLC",Brooklyn,40.672324,-73.956267,661 St. John's Place,11216,Non-Minority,WBE,Real Estate and Rental and Leasing,Activities Related to Real Estate,"$37,860.00 ",4006
Point (-73.95626699999999687 40.67232400000000325),1750,"Strada Ventures, LLC",Brooklyn,40.672324,-73.956267,661 St. John's Place,11216,Non-Minority,WBE,Real Estate and Rental and Leasing,Activities Related to Real Estate,"$37,860.00 ",4006
Point (-73.95626699999999687 40.67232400000000325),1751,"Strada Ventures, LLC",Brooklyn,40.672324,-73.956267,661 St. John's Place,11216,Non-Minority,WBE,Real Estate and Rental and Leasing,Activities Related to Real Estate,"$37,860.00 ",4006
Point (-73.97549800000000175 40.67878600000000233),1784,SusanCHSpeaks LLC,Brooklyn,40.678786,-73.975498,113 6th Avenue,11217,Black,M/WBE,"Professional, Scientific, and Technical Services","Management, Scientific, and Technical Consulting Services",,4006
Point (-73.96294799999999725 40.67901700000000176),1786,SVLR Ltd,Brooklyn,40.679017,-73.962948,816 Dean Street,11238,Hispanic,M/WBE,"Professional, Scientific, and Technical Services","Other Professional, Scientific, and Technical Services","$400,000.00 ",4006
Point (-73.94989099999999382 40.67784900000000192),1789,Sweet Brooklyn Bar LLC,Brooklyn,40.677849,-73.949891,608 Nostrand Ave,11216,Black,M/WBE,Accommodation and Food Services,Drinking Places (Alcoholic Beverages),"$3,500.00 ",4006
Point (-73.94759200000000021 40.67295099999999763),1793,T&K Alridge Home Improvement LLC,Brooklyn,40.672951,-73.947592,219 E92 nd st,11212,Black,MBE,Construction,Residential Building Construction,,4006
Point (-73.93658999999999537 40.66773599999999789),1809,"Tee Pee Entity, LLC",Brooklyn,40.667736,-73.93659,317 Troy Avenue,11213,Black,M/WBE,Construction,Other Specialty Trade Contractors,"$5,500.00 ",4006
Point (-73.95539999999999736 40.67738500000000101),1824,Crabby Shack,Brooklyn,40.677385,-73.9554,613 Franklin Ave,11238,Black,M/WBE,Accommodation and Food Services,Restaurants and Other Eating Places,"$5,500.00 ",4006
Point (-73.960874000000004 40.67166399999999982),1836,The Memo I Never Got LLC,Brooklyn,40.671664,-73.960874,225 Eastern Parkway,11238,Black,M/WBE,"Professional, Scientific, and Technical Services","Management, Scientific, and Technical Consulting Services","$150,000.00 ",4006
Point (-73.96729700000000207 40.67452600000000018),1849,"The Studio Toast, Inc",Brooklyn,40.674526,-73.967297,315 St. Johns Place,11238,Non-Minority,WBE,"Professional, Scientific, and Technical Services","Management, Scientific, and Technical Consulting Services","$14,500.00 ",4006
Point (-73.96410299999999438 40.68036099999999777),1850,"THE TATE GROUP, INC.",Brooklyn,40.680361,-73.964103,579 Washington Avenue,11238,Black,MBE,"Professional, Scientific, and Technical Services","Advertising, Public Relations, and Related Services",,4006
Point (-73.93162900000000093 40.66547800000000024),1862,"Tight Lynx Construction, LLC",Brooklyn,40.665478,-73.931629,374 Utica Ave,11213,Black,MBE,Construction,Other Specialty Trade Contractors,,4006
Point (-73.96804000000000201 40.68061999999999756),1864,Tinsel Experiential Design,Brooklyn,40.68062,-73.96804,550 Vanderbilt Ave,11238,Asian-Pacific,M/WBE,"Arts, Entertainment, and Recreation","Promoters of Performing Arts, Sports, and Similar Events","$2,200,000.00 ",4006
Point (-73.93110299999999313 40.67652199999999851),1881,Trade Street Jam LLC,Brooklyn,40.676522,-73.931103,1736 Pacific St.,11213,Black,M/WBE,Wholesale Trade,Grocery and Related Product Merchant Wholesalers,"$50,000.00 ",4006
Point (-73.94441299999999728 40.67055899999999724),1891,TREY BRICK STONE LLC,Brooklyn,40.670559,-73.944413,965 Lincoln Place,11213,Black,MBE,"Professional, Scientific, and Technical Services","Other Professional, Scientific, and Technical Services",$950.00 ,4006
Point (-73.93094000000000676 40.67224499999999665),1940,Utica Express Pharmacy Inc.,Brooklyn,40.672245,-73.93094,190 Utica Ave,11213,Black,MBE,Manufacturing,Pharmaceutical and Medicine Manufacturing,"$9,600.00 ",4006
Point (-73.92746300000000303 40.68077300000000207),1943,Valentina Client Representation LLC,Brooklyn,40.680773,-73.927463,189A Chauncey Street,11233,Black,M/WBE,"Professional, Scientific, and Technical Services","Architectural, Engineering, and Related Services","$25,000.00 ",4006
Point (-73.96828800000000115 40.67740799999999979),1951,Vellichor Consulting LLC,Brooklyn,40.677408,-73.968288,246 Prospect Place,11238,Non-Minority,WBE,"Professional, Scientific, and Technical Services","Management, Scientific, and Technical Consulting Services","$6,127.00 ",4006
Point (-73.97460599999999431 40.67811199999999872),1957,Verdant Learning LLC,Brooklyn,40.678112,-73.974606,118 Park Place,11217,Asian-Indian,M/WBE,Educational Services,Elementary and Secondary Schools,"$123,760.00 ",4006
Point (-73.92733900000000347 40.67763999999999669),1958,Verified Brand LLC,Brooklyn,40.67764,-73.927339,45 Rochester Avenue,11233,Black,M/WBE,"Professional, Scientific, and Technical Services","Other Professional, Scientific, and Technical Services","$15,000.00 ",4006
Point (-73.93656799999999407 40.67387999999999693),1964,VIP Ride Share Service,Brooklyn,40.67388,-73.936568,162 Troy Ave,11213,Black,MBE,Transportation and Warehousing,Taxi and Limousine Service,,4006
Point (-73.96227199999999868 40.67848000000000042),1965,"Virgo Iron Works, Inc.",Brooklyn,40.67848,-73.962272,568 E Grand Avenue,11238,Black,MBE,Construction,Other Specialty Trade Contractors,"$3,730.43 ",4006
Point (-73.92300199999999677 40.67721999999999838),1966,Virtue Media Visions Network LLC,Brooklyn,40.67722,-73.923002,1875 Atlantic Avenue,11233,Black,M/WBE,"Professional, Scientific, and Technical Services","Advertising, Public Relations, and Related Services","$6,152.00 ",4006
Point (-73.94947200000000009 40.67929399999999873),1992,"Wellness Tea Therapy, LLC",Brooklyn,40.679294,-73.949472,525 Nostrand Avenue,11216,Black,M/WBE,Retail Trade,Other Miscellaneous Store Retailers,$100.00 ,4006
Point (-73.94567299999999932 40.6775739999999999),1998,"Where To Get It Services, LLC",Brooklyn,40.677574,-73.945673,"1395 Pacific Street,",11216,Black,M/WBE,Construction,Residential Building Construction,"$575,000.00 ",4006
Point (-73.96449300000000449 40.67297400000000351),2001,"Windsor Bateman Solutions, LLC",Brooklyn,40.672974,-73.964493,350 Lincoln Pl,11238,Non-Minority,WBE,Public Administration,Administration of Human Resource Programs,"$209,000.00 ",4006
Point (-73.9564189999999968 40.6719890000000035),2017,Wynn Strategies LLC,Brooklyn,40.671989,-73.956419,5 Saint Francis Place,11216,Hispanic,M/WBE,"Professional, Scientific, and Technical Services","Management, Scientific, and Technical Consulting Services","$75,000.00 ",4006
Point (-73.9656659999999988 40.68066900000000174),2028,YOU ARE THE CITY,Brooklyn,40.680669,-73.965666,887 Pacific St,11238,Non-Minority,WBE,"Professional, Scientific, and Technical Services","Architectural, Engineering, and Related Services","$6,000.00 ",4006
Point (-73.94480900000000645 40.66255300000000261),39,"A Martin & Industries, LLC",Brooklyn,40.662553,-73.944809,492 Lefferts Avenue,11225,Black,MBE,Educational Services,Elementary and Secondary Schools,$485.00 ,4011
Point (-73.96155799999999658 40.66220599999999763),43,A.M.J Electric Corp,Brooklyn,40.662206,-73.961558,495 Flatbush Ave #35,11225,Black,MBE,Construction,Building Equipment Contractors,"$152,447.00 ",4011
Point (-73.9424850000000049 40.66114799999999718),69,AD Cleaning Solutions LLC,Brooklyn,40.661148,-73.942485,"523 Kingston Ave, Ste. 3",11225,Black,M/WBE,Administrative and Support and Waste Management and Remediation Services,Services to Buildings and Dwellings,"$1,200.00 ",4011
Point (-73.96155799999999658 40.66220599999999763),88,AGAPE Family Therapy & Coaching LLC,Brooklyn,40.662206,-73.961558,495 Flatbush avenue,11225,Black,M/WBE,"Professional, Scientific, and Technical Services","Management, Scientific, and Technical Consulting Services","$7,915.00 ",4011
Point (-73.95103600000000199 40.66219900000000109),108,All American Electrical Corporation,Brooklyn,40.662199,-73.951036,308 Lefferts Avenue,11225,Black,MBE,Construction,Building Equipment Contractors,,4011
Point (-73.95232199999999523 40.65598899999999816),115,"All Volts Electrical, Inc.",Brooklyn,40.655989,-73.952322,640 Parkside Avenue,11226,Black,MBE,Construction,Building Equipment Contractors,"$1,200,000.00 ",4011
Point (-73.94274799999999459 40.66021800000000042),126,Alyssa Meadows,Brooklyn,40.660218,-73.942748,558 Kingston Ave Apt# 4,11203,Non-Minority,WBE,"Professional, Scientific, and Technical Services","Other Professional, Scientific, and Technical Services",$800.00 ,4011
Point (-73.94397899999999879 40.66841999999999757),170,Ariber Speech Therapy PC,Brooklyn,40.66842,-73.943979,1386 Union Street,11213,Non-Minority,WBE,Educational Services,Educational Support Services,"$5,197.00 ",4011
Point (-73.9452270000000027 40.66004600000000124),174,"Arplast Poly & Packaging, Inc.",Brooklyn,40.660046,-73.945227,"Brooklyn Navy Yard, Bldg. 292",11205,Non-Minority,WBE,Manufacturing,Medical Equipment and Supplies Manufacturing,"$23,500.00 ",4011
Point (-73.96105599999999924 40.65822299999999956),180,Artemis JV LLC,Brooklyn,40.658223,-73.961056,17 Chester Street,11225,Non-Minority,WBE,"Professional, Scientific, and Technical Services","Management, Scientific, and Technical Consulting Services","$120,000.00 ",4011
Point (-73.95433099999999627 40.66070700000000215),196,Athena Consulting Group Inc.,Brooklyn,40.660707,-73.954331,195 Maple Street,11225,Non-Minority,WBE,"Professional, Scientific, and Technical Services","Advertising, Public Relations, and Related Services","$36,000.00 ",4011
Point (-73.94468200000000024 40.65757700000000341),199,Atlas Safety Incorporated,Brooklyn,40.657577,-73.944682,461 Winthrop Street Apt 6D,11203,Black,MBE,Construction,Nonresidential Building Construction,"$120,000.00 ",4011
Point (-73.95211100000000215 40.66534599999999955),234,"B. Brave by SK Wilbur, LLC",Brooklyn,40.665346,-73.952111,382 Montgomery Street,11225,Black,MBE,Retail Trade,Clothing and Clothing Accessories Retailers,"$1,700.00 ",4011
Point (-73.9379820000000052 40.66361500000000007),265,BEnSol Tech LLC,Brooklyn,40.663615,-73.937982,736 Empire Blvd,11213,Black,MBE,Utilities,"Electric Power Generation, Transmission and Distribution","$115,000.00 ",4011
Point (-73.95202899999999602 40.66556899999999786),274,Bevy Luxe LLC,Brooklyn,40.665569,-73.952029,377 Montgomery Street,11225,Non-Minority,WBE,"Professional, Scientific, and Technical Services","Management, Scientific, and Technical Consulting Services",,4011
Point (-73.96155799999999658 40.66220599999999763),300,Blu Construction LLC,Brooklyn,40.662206,-73.961558,495 Flatbush Avenue,11225,Black,M/WBE,Construction,Other Specialty Trade Contractors,,4011
Point (-73.96096900000000574 40.65789099999999934),310,BlueCard Technologies Inc.,Brooklyn,40.657891,-73.960969,626 Flatbush Ave Apt 17A,11225,Hispanic,MBE,Information,"Computing Infrastructure Providers, Data Processing, Web Hosting, and Related Services","$5,000.00 ",4011
Point (-73.95287000000000432 40.65598399999999657),319,BOLT Architecture PLLC,Brooklyn,40.655984,-73.95287,635 Rogers Avenue,11226,Black,MBE,"Professional, Scientific, and Technical Services","Architectural, Engineering, and Related Services","$80,000.00 ",4011
Point (-73.95140399999999659 40.65874999999999773),322,"Borkor Psychotherapy Services LCSW, PLLC",Brooklyn,40.65875,-73.951404,335 Fenimore Street,11225,Black,M/WBE,Health Care and Social Assistance,Offices of Other Health Practitioners,,4011
Point (-73.95798600000000533 40.6511380000000031),327,Breakthrough Solutions,Brooklyn,40.651138,-73.957986,30 Martense st. Ste LA,11226,Black,MBE,Health Care and Social Assistance,Offices of Other Health Practitioners,"$30,000.00 ",4011
Point (-73.96077499999999816 40.65903800000000246),386,"C.B.A., Inc.",Brooklyn,40.659038,-73.960775,590 Flatbush Avenue,11225,Black,MBE,"Professional, Scientific, and Technical Services","Architectural, Engineering, and Related Services","$104,800.00 ",4011
Point (-73.95005999999999347 40.66306699999999807),423,Chloe Taylor Technology,Brooklyn,40.663067,-73.95006,320 Sterling Street,11225,Black,M/WBE,Educational Services,Elementary and Secondary Schools,,4011
Point (-73.94875999999999294 40.66231499999999954),432,"Citi Mosaic Real Estate, LLC",Brooklyn,40.662315,-73.94876,382 Lefferts Avenue,11225,Hispanic,M/WBE,Real Estate and Rental and Leasing,Offices of Real Estate Agents and Brokers,"$2,300.00 ",4011
Point (-73.93838700000000586 40.66208499999999759),450,Cmani's Delights,Brooklyn,40.662085,-73.938387,728 East New York Avenue,11203,Black,M/WBE,Accommodation and Food Services,Special Food Services,,4011
Point (-73.95829799999999921 40.66128499999999946),479,"Context Lab 360, LLC",Brooklyn,40.661285,-73.958298,131 Lincoln Road,11225,Black,MBE,"Professional, Scientific, and Technical Services","Management, Scientific, and Technical Consulting Services","$54,640.00 ",4011
Point (-73.96155799999999658 40.66220599999999763),499,CS Electrical Contractor Corp.,Brooklyn,40.662206,-73.961558,495 Flatbush Avenue,11225,Black,MBE,Construction,Building Finishing Contractors,"$44,000.00 ",4011
Point (-73.95241500000000201 40.66397099999999654),519,"DARE Consulting, Inc.",Brooklyn,40.663971,-73.952415,289 Empire Blvd,11225,Non-Minority,WBE,Educational Services,Elementary and Secondary Schools,"$57,475.00 ",4011
Point (-73.95079499999999939 40.66037899999999894),544,Discover Green Renewable Energy LLC,Brooklyn,40.660379,-73.950795,1120 Nostrand Avenue,11225,Black,MBE,Construction,Other Specialty Trade Contractors,"$751,800.00 ",4011
Point (-73.94058099999999456 40.66409300000000115),545,Tha Pawsomes,Brooklyn,40.664093,-73.940581,649 Empire Boulevard #23,11213,Black,M/WBE,Other Services (except Public Administration),Other Personal Services,$144.00 ,4011
Point (-73.95677200000000084 40.65790599999999699),570,Drop40 Productions,Brooklyn,40.657906,-73.956772,1930 Bedford Avenue,11225,Black,MBE,"Professional, Scientific, and Technical Services","Other Professional, Scientific, and Technical Services","$9,700.00 ",4011
Point (-73.96155799999999658 40.66220599999999763),583,Dynamic Therapeutic Cares SLP PLLC,Brooklyn,40.662206,-73.961558,495 Flatbush Avenue,11225,Black,M/WBE,Health Care and Social Assistance,Offices of Other Health Practitioners,$135.00 ,4011
Point (-73.93954499999999541 40.6598510000000033),604,Ecosysm LLC,Brooklyn,40.659851,-73.939545,601 Albany Avenue,11203,Black,MBE,Administrative and Support and Waste Management and Remediation Services,Services to Buildings and Dwellings,"$35,000.00 ",4011
Point (-73.95299900000000548 40.66236200000000167),619,Elephant Jungle Inc.,Brooklyn,40.662362,-73.952999,247 Lefferts Avenue,11225,Black,M/WBE,"Arts, Entertainment, and Recreation",Other Amusement and Recreation Industries,$50.00 ,4011
Point (-73.95187599999999861 40.65991600000000261),655,Episerve Corp.,Brooklyn,40.659916,-73.951876,266 Midwood Street,11225,Black,M/WBE,"Professional, Scientific, and Technical Services",Computer Systems Design and Related Services,,4011
Point (-73.95727100000000576 40.658138000000001),660,ES Wellness,Brooklyn,40.658138,-73.957271,160 Fenimore Street,11225,Non-Minority,WBE,"Arts, Entertainment, and Recreation","Promoters of Performing Arts, Sports, and Similar Events",$500.00 ,4011
Point (-73.93996400000000335 40.66506499999999846),674,F.I. Electrical Corp.,Brooklyn,40.665065,-73.939964,424 Albany Ave,11213,Black,MBE,Construction,Building Equipment Contractors,"$918,250.00 ",4011
Point (-73.95157899999999529 40.65367499999999978),678,"Faircaribe, Inc.",Brooklyn,40.653675,-73.951579,222 Lenox Road,12226,Black,MBE,Wholesale Trade,Grocery and Related Product Merchant Wholesalers,$0.00 ,4011
Point (-73.95449200000000189 40.66544799999999782),701,Flash Exterminating Inc.,Brooklyn,40.665448,-73.954492,310 Montgomery Street,11225,Black,MBE,Administrative and Support and Waste Management and Remediation Services,Services to Buildings and Dwellings,"$100,000.00 ",4011
Point (-73.9560730000000035 40.66528499999999724),753,Generation Wealth LLC,Brooklyn,40.665285,-73.956073,2 Stoddard Place,11225,Black,M/WBE,Educational Services,Educational Support Services,"$6,000.00 ",4011
Point (-73.95747099999999818 40.66948699999999661),760,Ghana Elite Entertainment LLC,Brooklyn,40.669487,-73.957471,1042 Union Street,11225,Black,MBE,"Arts, Entertainment, and Recreation","Promoters of Performing Arts, Sports, and Similar Events",$400.00 ,4011
Point (-73.96263000000000432 40.66244900000000229),799,Greenside Corp.,Brooklyn,40.662449,-73.96263,15 Ocean Avenue,11225,Black,MBE,Construction,Residential Building Construction,"$900,000.00 ",4011
Point (-73.95392800000000477 40.65073199999999787),829,Have Better Conversations LLC,Brooklyn,40.650732,-73.953928,2527 Church Avenue,11226,Black,MBE,"Professional, Scientific, and Technical Services","Other Professional, Scientific, and Technical Services","$21,450.00 ",4011
Point (-73.95067000000000235 40.65922199999999975),854,Hilton & Co Corporation,Brooklyn,40.659222,-73.95067,1154 Nostrand Avenue,11225,Black,M/WBE,"Professional, Scientific, and Technical Services","Accounting, Tax Preparation, Bookkeeping, and Payroll Services",$300.00 ,4011
Point (-73.95207100000000366 40.66292899999999833),865,House Of Cakes Design LLC,Brooklyn,40.662929,-73.952071,270 Sterling Street,11225,Asian-Pacific,M/WBE,"Professional, Scientific, and Technical Services",Specialized Design Services,"$95,000.00 ",4011
Point (-73.94172500000000525 40.6615019999999987),877,I.T.A. MOVEMENT,Brooklyn,40.661502,-73.941725,569 Maple St,11203,Black,MBE,"Arts, Entertainment, and Recreation",Other Amusement and Recreation Industries,$600.00 ,4011
Point (-73.93931999999999505 40.66214699999999738),913,Intentions & Touch LLC,Brooklyn,40.662147,-73.93932,702 East New York Avenue,11203,Black,M/WBE,Other Services (except Public Administration),Personal Care Services,$300.00 ,4011
Point (-73.9560730000000035 40.66528499999999724),931,J Rocke Consulting Services,Brooklyn,40.665285,-73.956073,2 Stoddard Place,11225,Black,M/WBE,Educational Services,Educational Support Services,"$24,996.00 ",4011
Point (-73.93618899999999883 40.66535799999999767),961,"Jesus Loves Everybody, Inc.",Brooklyn,40.665358,-73.936189,660 Crown Street,11213,Black,M/WBE,Other Services (except Public Administration),Other Personal Services,,4011
Point (-73.96155799999999658 40.66220599999999763),970,JMI Security Services,Brooklyn,40.662206,-73.961558,495 Flatbush Avenue Fl 1,11225,Black,MBE,Administrative and Support and Waste Management and Remediation Services,Investigation and Security Services,$320.00 ,4011
Point (-73.95045399999999347 40.66817300000000301),975,Joemaria Corporation,Brooklyn,40.668173,-73.950454,1195 President Street,11225,Black,MBE,Administrative and Support and Waste Management and Remediation Services,Remediation and Other Waste Management Services,"$59,226.00 ",4011
Point (-73.95681199999999933 40.66772999999999882),976,Joe's Pest Control LLC,Brooklyn,40.66773,-73.956812,1007 Carroll Street,11225,Hispanic,MBE,Administrative and Support and Waste Management and Remediation Services,Services to Buildings and Dwellings,"$244,400.00 ",4011
Point (-73.93948899999999469 40.66288300000000078),978,Jonahs Enterprises Inc,Brooklyn,40.662883,-73.939489,652 Lefferts Avenue,11203,Hispanic,MBE,Retail Trade,Other Miscellaneous Store Retailers,"$86,616.00 ",4011
Point (-73.95084400000000358 40.65175399999999684),997,Justin T Shockley,Brooklyn,40.651754,-73.950844,245 Martense Street,11226,Black,MBE,"Professional, Scientific, and Technical Services","Other Professional, Scientific, and Technical Services","$4,000.00 ",4011
Point (-73.94892699999999763 40.66518099999999691),1005,Kalitech Services Inc.,Brooklyn,40.665181,-73.948927,480 Montgomery street 1 g,11225,Black,M/WBE,Information,"Computing Infrastructure Providers, Data Processing, Web Hosting, and Related Services","$60,000.00 ",4011
Point (-73.95237299999999436 40.65787399999999963),1008,"Kapten Consulting HLDGS, LLC",Brooklyn,40.657874,-73.952373,237 Hawthorne street,11225,Black,MBE,Educational Services,Educational Support Services,"$20,700.00 ",4011
Point (-73.96184700000000589 40.66198899999999838),1013,Karens Beauty Bar Inc.,Brooklyn,40.661989,-73.961847,498 Flatbush Ave,11225,Black,M/WBE,Other Services (except Public Administration),Personal Care Services,,4011
Point (-73.96155799999999658 40.66220599999999763),1022,Urban ID Media,Brooklyn,40.662206,-73.961558,"495 Flatbush Avenue, Suite 18",11223,Black,MBE,"Professional, Scientific, and Technical Services","Advertising, Public Relations, and Related Services","$7,000.00 ",4011
Point (-73.96155799999999658 40.66220599999999763),1030,Killer Snails LLC,Brooklyn,40.662206,-73.961558,495 Flatbush Ave,11225,Black,M/WBE,Educational Services,Educational Support Services,"$3,000.00 ",4011
Point (-73.9621659999999963 40.65880099999999686),1035,Kingston Red Inc.,Brooklyn,40.658801,-73.962166,163 Ocean Ave H4,11225,Black,MBE,"Professional, Scientific, and Technical Services","Other Professional, Scientific, and Technical Services",,4011
Point (-73.9533129999999943 40.66044000000000125),1050,KMP Design and Engineering PLLC,Brooklyn,40.66044,-73.953313,481 Rogers Avenue,11225,Black,MBE,"Professional, Scientific, and Technical Services","Architectural, Engineering, and Related Services",,4011
Point (-73.96178500000000611 40.66190000000000282),1104,"Lefferts Garden Promise, LLC",Brooklyn,40.6619,-73.961785,502 Flatbush Avenue,11225,Black,M/WBE,Health Care and Social Assistance,Child Care Services,,4011
Point (-73.95569799999999816 40.65760399999999919),1105,Legacies of Health,Brooklyn,40.657604,-73.955698,135 Hawthorne St,11225,Black,M/WBE,Health Care and Social Assistance,Individual and Family Services,$555.00 ,4011
Point (-73.95458899999999858 40.65902899999999676),1109,Legal Skills Center LLC,Brooklyn,40.659029,-73.954589,186 Rutland Road,11225,Black,M/WBE,Public Administration,"Administration of Housing Programs, Urban Planning, and Community Development","$51,800.00 ",4011
Point (-73.96077499999999816 40.65903800000000246),1120,"Liberation-Based Therapy LCSW, PLLC",Brooklyn,40.659038,-73.960775,590 Flatbush Avenue,11225,Black,M/WBE,Health Care and Social Assistance,Offices of Other Health Practitioners,"$40,000.00 ",4011
Point (-73.96254199999999912 40.6599599999999981),1126,"Lift Force Consulting Group, Inc.",Brooklyn,40.65996,-73.962542,125 Ocean Avenue,11225,Black,M/WBE,"Professional, Scientific, and Technical Services","Other Professional, Scientific, and Technical Services","$48,500.00 ",4011
Point (-73.95721500000000503 40.65597100000000097),1127,Lightguide LLC,Brooklyn,40.655971,-73.957215,379 Parkside Ave,11226,Black,M/WBE,Educational Services,Educational Support Services,,4011
Point (-73.95326099999999769 40.66466100000000239),1149,"Llewellyn Design Studio, LLC",Brooklyn,40.664661,-73.953261,227 Sullivan Pl,11225,Black,M/WBE,"Professional, Scientific, and Technical Services",Specialized Design Services,"$8,125.00 ",4011
Point (-73.96131300000000408 40.66185399999999817),1208,Masala Mama LLC,Brooklyn,40.661854,-73.961313,507 Flatbush Avenue 2nd Floor,11225,Asian-Indian,M/WBE,Manufacturing,Other Food Manufacturing,"$1,391.00 ",4011
Point (-73.93769000000000347 40.66580100000000186),1242,Metrolight Staffing Agency LLC,Brooklyn,40.665801,-73.93769,621 Crown Street Apt D7,11213,Black,M/WBE,Administrative and Support and Waste Management and Remediation Services,Employment Services,"$3,500.00 ",4011
Point (-73.9452270000000027 40.66004600000000124),1251,Metal Fabrication,Brooklyn,40.660046,-73.945227,Brooklyn Navy Yard Bldg 280,11205,Non-Minority,WBE,"Arts, Entertainment, and Recreation","Independent Artists, Writers, and Performers","$46,600.00 ",4011
Point (-73.94858600000000592 40.66107900000000086),1255,"Mike's Incredibly Satisfying Sea Moss, LLC",Brooklyn,40.661079,-73.948586,"361 Maple St, Apt/9B",11225,Black,MBE,Accommodation and Food Services,Special Food Services,,4011
Point (-73.95357099999999662 40.66525299999999987),1296,"MRK Computer Services, Inc.",Brooklyn,40.665253,-73.953571,327 Rogers Avenue,11225,Black,MBE,Other Services (except Public Administration),Electronic and Precision Equipment Repair and Maintenance,"$3,700.00 ",4011
Point (-73.95273400000000663 40.65535299999999808),1332,New Season Real Estate LLC,Brooklyn,40.655353,-73.952734,207 Clarkson Avenue,11226,Black,MBE,Real Estate and Rental and Leasing,Activities Related to Real Estate,"$61,000.00 ",4011
Point (-73.96155799999999658 40.66220599999999763),1368,NYBeautySuites LLC,Brooklyn,40.662206,-73.961558,495 Flatbush Ave,11225,Black,M/WBE,Real Estate and Rental and Leasing,Activities Related to Real Estate,"$1,500.00 ",4011
Point (-73.93197100000000432 40.65899999999999892),1376,OGC Electrical Contractor Inc.,Brooklyn,40.659,-73.931971,135 E 49th street,11203,Black,MBE,Construction,Utility System Construction,"$4,300.00 ",4011
Point (-73.95882699999999943 40.66249799999999937),1404,"Optimal Management Solutions, LLC",Brooklyn,40.662498,-73.958827,64 Sterling Street,11225,Black,MBE,"Professional, Scientific, and Technical Services","Management, Scientific, and Technical Consulting Services","$45,000.00 ",4011
Point (-73.96155799999999658 40.66220599999999763),1431,Pathway To Purpose LLC,Brooklyn,40.662206,-73.961558,495 Flatbush Ave,11225,Black,M/WBE,Educational Services,Educational Support Services,"$24,960.00 ",4011
Point (-73.92928799999999967 40.66152300000000253),1453,PingPong Design Studio LLC,Brooklyn,40.661523,-73.929288,"103 Remsen Avenue, First floor",11212,Asian-Pacific,M/WBE,"Arts, Entertainment, and Recreation","Independent Artists, Writers, and Performers","$13,000.00 ",4011
Point (-73.95079200000000696 40.66033600000000092),1454,"Pisqueya, Inc.",Brooklyn,40.660336,-73.950792,1122A Nostrand Ave,11225,Hispanic,M/WBE,Manufacturing,Other Food Manufacturing,"$40,000.00 ",4011
Point (-73.95241500000000201 40.65173200000000264),1485,Prestige Medical Supply Inc,Brooklyn,40.651732,-73.952415,787 Rogers Avenue,11226,Black,MBE,Retail Trade,Health and Personal Care Retailers,,4011
Point (-73.95310000000000628 40.66961200000000076),1553,Red Lotus Arts,Brooklyn,40.669612,-73.9531,458 Eastern Parkway,11225,Black,M/WBE,"Arts, Entertainment, and Recreation","Independent Artists, Writers, and Performers",$750.00 ,4011
Point (-73.95049699999999859 40.66834099999999808),1577,Richards Accounting & Financial Services,Brooklyn,40.668341,-73.950497,829 Nostrand Avenue,11225,Hispanic,MBE,"Professional, Scientific, and Technical Services","Accounting, Tax Preparation, Bookkeeping, and Payroll Services","$43,000.00 ",4011
Point (-73.94038600000000372 40.6631450000000001),1600,"RPFF Media, LLC",Brooklyn,40.663145,-73.940386,"621 Lefferts Ave, B17",11203,Black,MBE,Educational Services,Educational Support Services,,4011
Point (-73.95364700000000369 40.66004600000000124),1621,"Salazar Architecture, LLC",Brooklyn,40.660046,-73.953647,217 Midwood St,11225,Hispanic,MBE,"Professional, Scientific, and Technical Services","Architectural, Engineering, and Related Services","$550,000.00 ",4011
Point (-73.94058099999999456 40.66409300000000115),1656,Shalinthia Miles Smith Company LLC,Brooklyn,40.664093,-73.940581,649 Empire Boulevard #23,11213,Black,M/WBE,"Professional, Scientific, and Technical Services","Management, Scientific, and Technical Consulting Services","$100,000.00 ",4011
Point (-73.95308300000000656 40.65829200000000299),1686,"Simply Forms and Computers, Inc.",Brooklyn,40.658292,-73.953083,555 Rogers Avenue,11225,Black,MBE,Manufacturing,Printing and Related Support Activities,"$15,885.00 ",4011
Point (-73.95775999999999328 40.66955099999999845),1716,Soul2Soulz Productions Incorporated,Brooklyn,40.669551,-73.95776,1038 Union Street,11225,Black,M/WBE,Information,Motion Picture and Video Industries,$914.00 ,4011
Point (-73.96155799999999658 40.66220599999999763),1752,"Streamline Security Services, Inc.",Brooklyn,40.662206,-73.961558,495 Flatbush Ave,11225,Black,MBE,Administrative and Support and Waste Management and Remediation Services,Investigation and Security Services,"$550,000.00 ",4011
Point (-73.96077499999999816 40.65903800000000246),1758,Studio 397 Architecture PLLC,Brooklyn,40.659038,-73.960775,590 Flatbush Avenue,11225,Black,M/WBE,"Professional, Scientific, and Technical Services","Architectural, Engineering, and Related Services","$465,000.00 ",4011
Point (-73.94705999999999335 40.66532699999999778),1763,Studio H Architecture Planning Environments D.P.C.,Brooklyn,40.665327,-73.94706,531 Montgomery St,11225,Black,MBE,"Professional, Scientific, and Technical Services","Architectural, Engineering, and Related Services","$24,818.00 ",4011
Point (-73.96155799999999658 40.66220599999999763),1773,Sunny Day Marketing Inc.,Brooklyn,40.662206,-73.961558,495 Flatbush Ave.,11225,Black,M/WBE,"Professional, Scientific, and Technical Services","Management, Scientific, and Technical Consulting Services","$10,000.00 ",4011
Point (-73.95497000000000298 40.66275000000000261),1806,Teach Alexander Educational Services Inc.,Brooklyn,40.66275,-73.95497,182 Sterling Street,11225,Black,M/WBE,Educational Services,Educational Support Services,,4011
Point (-73.94875999999999294 40.66231499999999954),1816,The Boys Room LLC,Brooklyn,40.662315,-73.94876,382 Lefferts Avenue,11225,Hispanic,M/WBE,Educational Services,Educational Support Services,"$1,700.00 ",4011
Point (-73.95892100000000369 40.6518870000000021),1831,"The Gentleman's Kitchen, LLC",Brooklyn,40.651887,-73.958921,833 Flatbush Avenue,11226,Black,MBE,Accommodation and Food Services,Restaurants and Other Eating Places,,4011
Point (-73.95365900000000181 40.65532100000000071),1854,hircinous,Brooklyn,40.655321,-73.953659,181 Clarkson Ave,11226,Asian-Indian,MBE,"Professional, Scientific, and Technical Services","Management, Scientific, and Technical Consulting Services",,4011
Point (-73.95792899999999293 40.66255000000000308),1856,ThinkWoven,Brooklyn,40.66255,-73.957929,96 Sterling Street,11225,Non-Minority,WBE,"Professional, Scientific, and Technical Services","Architectural, Engineering, and Related Services","$73,079.00 ",4011
Point (-73.96064499999999953 40.66731000000000051),1899,Triton Consulting NYC LLC,Brooklyn,40.66731,-73.960645,12 Crown St,11225,Black,MBE,Educational Services,Other Schools and Instruction,"$16,200.00 ",4011
Point (-73.9539400000000029 40.65906799999999777),1903,Ciocchini Design,Brooklyn,40.659068,-73.95394,206 Rutland Road,11225,Hispanic,MBE,"Professional, Scientific, and Technical Services",Specialized Design Services,"$120,000.00 ",4011
Point (-73.95542600000000277 40.6627200000000002),1974,"Vontélle, LLC",Brooklyn,40.66272,-73.955426,168 Sterling Street,11225,Black,M/WBE,Retail Trade,Health and Personal Care Retailers,"$21,412.00 ",4011
Point (-73.95519600000000082 40.66502799999999951),1994,Westerhall Solutions Inc.,Brooklyn,40.665028,-73.955196,22 Ludlam Place,11225,Black,M/WBE,"Professional, Scientific, and Technical Services","Management, Scientific, and Technical Consulting Services","$89,500.00 ",4011
Point (-73.95441900000000146 40.65587299999999971),2000,Wily Media,Brooklyn,40.655873,-73.954419,566 Parkside Avenue,11226,Non-Minority,WBE,"Professional, Scientific, and Technical Services","Other Professional, Scientific, and Technical Services","$5,000.00 ",4011
Point (-73.99618800000000363 40.66314100000000309),4,Venus Fire Protection and Safety Service,Brooklyn,40.663141,-73.996188,159 21st Street,11232,Asian-Pacific,MBE,Construction,Building Equipment Contractors,,4012
Point (-73.97353400000000079 40.64685899999999918),55,"Abdul Construction & Painting, Corp.",Brooklyn,40.646859,-73.973534,210 East 7th Street,11218,Asian-Indian,MBE,Construction,Residential Building Construction,"$3,600,000.00 ",4012
Point (-74.02327099999999405 40.64665800000000218),99,AKSH Quality Contracting Corp,Brooklyn,40.646658,-74.023271,5620 1st Ave,11220,Asian-Indian,M/WBE,Construction,"Foundation, Structure, and Building Exterior Contractors","$285,000.00 ",4012
Point (-74.00406300000000215 40.64485599999999721),113,"All Points Cleaning Service, LLC",Brooklyn,40.644856,-74.004063,672 46th Street,11220,Black,MBE,Administrative and Support and Waste Management and Remediation Services,Services to Buildings and Dwellings,"$2,197.15 ",4012
Point (-74.00974999999999682 40.63625199999999893),120,"Allstar Homecare Agency, Inc.",Brooklyn,40.636252,-74.00975,762 59 Street,11220,Asian-Pacific,MBE,Health Care and Social Assistance,Home Health Care Services,"$14,806,461.00 ",4012
Point (-74.00349400000000344 40.65876399999999791),128,Amanda Phingbodhipakkiya,Brooklyn,40.658764,-74.003494,850 3rd Ave,11232,Asian-Pacific,M/WBE,"Arts, Entertainment, and Recreation","Independent Artists, Writers, and Performers","$5,000.00 ",4012
Point (-74.02385599999999499 40.64554900000000259),195,Green Mustache,Brooklyn,40.645549,-74.023856,140 58th St.,11220,Asian-Pacific,M/WBE,Manufacturing,Other Food Manufacturing,,4012
Point (-74.00180600000000197 40.65615199999999874),219,"Ayano Hisa Photography, Inc.",Brooklyn,40.656152,-74.001806,875 4th Avenue,11232,Asian-Pacific,M/WBE,"Professional, Scientific, and Technical Services","Other Professional, Scientific, and Technical Services","$7,500.00 ",4012
Point (-74.00798299999999585 40.65658499999999975),267,Brightline Electrical,Brooklyn,40.656585,-74.007983,219 36th st,11232,Hispanic,MBE,Construction,Building Equipment Contractors,"$320,000.00 ",4012
Point (-74.00709899999999664 40.65673499999999763),275,"BIB Media, LLC",Brooklyn,40.656735,-74.007099,68 35th Street,11232,Black,MBE,Information,Motion Picture and Video Industries,"$10,058.00 ",4012
Point (-74.00709899999999664 40.65673499999999763),276,"BIB Media, LLC",Brooklyn,40.656735,-74.007099,68 35th Street,11232,Black,MBE,Information,Motion Picture and Video Industries,"$10,058.00 ",4012
Point (-74.00709899999999664 40.65673499999999763),277,"BIB Media, LLC",Brooklyn,40.656735,-74.007099,68 35th Street,11232,Black,MBE,Information,Motion Picture and Video Industries,"$10,058.00 ",4012
Point (-74.00709899999999664 40.65673499999999763),278,"BIB Media, LLC",Brooklyn,40.656735,-74.007099,68 35th Street,11232,Black,MBE,Information,Motion Picture and Video Industries,"$10,058.00 ",4012
Point (-74.00957499999999811 40.64256199999999808),306,Blue Roman LLC,Brooklyn,40.642562,-74.009575,5206 6th Avenue,11220,Hispanic,MBE,Retail Trade,Clothing and Clothing Accessories Retailers,$0.00 ,4012
Point (-74.01266999999999996 40.64993499999999926),330,"Brentwood Building Restoration, Inc.",Brooklyn,40.649935,-74.01267,4604 3rd  Ave,11220,Hispanic,MBE,Construction,Nonresidential Building Construction,"$2,000,000.00 ",4012
Point (-74.01266999999999996 40.64993499999999926),331,"Brentwood Building Restoration, Inc.",Brooklyn,40.649935,-74.01267,4604 3rd  Ave,11220,Hispanic,MBE,Construction,Nonresidential Building Construction,"$2,000,000.00 ",4012
Point (-74.01266999999999996 40.64993499999999926),332,"Brentwood Building Restoration, Inc.",Brooklyn,40.649935,-74.01267,4604 3rd  Ave,11220,Hispanic,MBE,Construction,Nonresidential Building Construction,"$2,000,000.00 ",4012
Point (-74.01266999999999996 40.64993499999999926),333,"Brentwood Building Restoration, Inc.",Brooklyn,40.649935,-74.01267,4604 3rd  Ave,11220,Hispanic,MBE,Construction,Nonresidential Building Construction,"$2,000,000.00 ",4012
Point (-74.00715599999999483 40.64943699999999893),370,BusDev Solutions LLC,Brooklyn,40.649437,-74.007156,454 43rd Street,11232,Hispanic,MBE,"Professional, Scientific, and Technical Services","Management, Scientific, and Technical Consulting Services","$7,000.00 ",4012
Point (-73.97666900000000112 40.65666800000000336),397,"Carson Worldwide, LLC",Brooklyn,40.656668,-73.976669,1653 11th Avenue,11215,Asian-Pacific,EBE | MBE,"Arts, Entertainment, and Recreation","Promoters of Performing Arts, Sports, and Similar Events","$150,000.00 ",4012
Point (-73.97283099999999934 40.64569000000000187),400,CAFE FES,Brooklyn,40.64569,-73.972831,709 church avenue,11218,Non-Minority,WBE,Accommodation and Food Services,Restaurants and Other Eating Places,"$162,240.00 ",4012
Point (-74.00268400000000213 40.65314300000000003),405,Cavalry LLC,Brooklyn,40.653143,-74.002684,462 36th Street,11232,Non-Minority,WBE,Construction,Other Specialty Trade Contractors,"$52,000.00 ",4012
Point (-74.00348400000000026 40.65712400000000315),417,Charter Technology Solutions,Brooklyn,40.657124,-74.003484,132 32nd Street,11232,Asian-Indian,MBE,"Professional, Scientific, and Technical Services",Computer Systems Design and Related Services,"$1,400,000.00 ",4012
